id_mutation,date_mutation,numero_disposition,nature_mutation,valeur_fonciere,adresse_numero,adresse_suffixe,adresse_nom_voie,adresse_code_voie,code_postal,code_commune,nom_commune,code_departement,ancien_code_commune,ancien_nom_commune,id_parcelle,ancien_id_parcelle,numero_volume,lot1_numero,lot1_surface_carrez,lot2_numero,lot2_surface_carrez,lot3_numero,lot3_surface_carrez,lot4_numero,lot4_surface_carrez,lot5_numero,lot5_surface_carrez,nombre_lots,code_type_local,type_local,surface_reelle_bati,nombre_pieces_principales,code_nature_culture,nature_culture,code_nature_culture_speciale,nature_culture_speciale,surface_terrain,longitude,latitude
2021-435705,2021-01-04,000001,Vente,146000,13,,RUE DE SION,1058,91000,91228,Évry-Courcouronnes,91,,,91228000AB0175,,,376,,,,,,,,,,1,3,Dépendance,,0,,,,,,2.433476,48.641092
2021-435705,2021-01-04,000001,Vente,146000,9,,RUE DE SION,1058,91000,91228,Évry-Courcouronnes,91,,,91228000AB0175,,,39,67.22,,,,,,,,,1,2,Appartement,67,3,,,,,,2.433476,48.641092
2021-435706,2021-01-05,000001,Vente,3500,4,,PL D'ESSONNES,2990,91100,91174,Corbeil-Essonnes,91,,,91174000BO0218,,,29,,,,,,,,,,1,3,Dépendance,,0,,,,,,2.465334,48.604042
2021-435707,2021-01-05,000001,Vente,138000,96,,RUE DE ROBINSON,4190,91100,91174,Corbeil-Essonnes,91,,,91174000BP0471,,,2,60.17,,,,,,,,,1,1,Maison,62,3,,,,,,2.458387,48.604715
2021-435708,2021-01-05,000001,Vente,320000,1,,VLA LAMARTINE,3211,91080,91228,Évry-Courcouronnes,91,,,91228182AH0315,,,26,124.25,,,,,,,,,1,1,Maison,134,7,S,sols,,,224,2.412248,48.620252
2021-435709,2021-01-06,000001,Vente,173000,8,,RUE DU BOUQUET,0460,91270,91657,Vigneux-sur-Seine,91,,,91657000AP0308,,,20,44.54,,,,,,,,,1,2,Appartement,44,2,,,,,,2.415622,48.696078
2021-435709,2021-01-06,000001,Vente,173000,8,,RUE DU BOUQUET,0460,91270,91657,Vigneux-sur-Seine,91,,,91657000AP0308,,,55,,,,,,,,,,1,3,Dépendance,,0,,,,,,2.415622,48.696078
2021-435710,2021-01-06,000001,Vente,450000,,,RUE DE SEINE,1320,91450,91600,Soisy-sur-Seine,91,,,91600000AM0175,,,,,,,,,,,,,0,,,,,S,sols,,,113,2.452469,48.642209
2021-435710,2021-01-06,000001,Vente,450000,28,,RUE DE SEINE,1320,91450,91600,Soisy-sur-Seine,91,,,91600000AM0202,,,,,,,,,,,,,0,1,Maison,100,3,AG,terrains d'agrément,,,461,2.452774,48.641931
2021-435710,2021-01-06,000001,Vente,450000,28,,RUE DE SEINE,1320,91450,91600,Soisy-sur-Seine,91,,,91600000AM0202,,,,,,,,,,,,,0,1,Maison,100,3,S,sols,,,1000,2.452774,48.641931
2021-435711,2021-01-07,000001,Vente,140000,27,,RUE DU GENERAL LECLERC,1940,91100,91174,Corbeil-Essonnes,91,,,91174000AE0130,,,16,,,,,,,,,,1,3,Dépendance,,0,,,,,,2.474818,48.611984
2021-435711,2021-01-07,000001,Vente,140000,27,,RUE DU GENERAL LECLERC,1940,91100,91174,Corbeil-Essonnes,91,,,91174000AE0130,,,3,,6,62.05,,,,,,,2,2,Appartement,61,2,,,,,,2.474818,48.611984
2021-435712,2021-01-05,000001,Vente,89600,8,,BD FRANCOIS MITTERRAND,0541,91000,91228,Évry-Courcouronnes,91,,,91228000AP0205,,,6151,,,,,,,,,,1,4,Local industriel. commercial ou assimilé,37,0,,,,,,2.426381,48.625788
2021-435712,2021-01-05,000001,Vente,89600,8,,BD FRANCOIS MITTERRAND,0541,91000,91228,Évry-Courcouronnes,91,,,91228000AP0205,,,6102,18.42,,,,,,,,,1,4,Local industriel. commercial ou assimilé,18,0,,,,,,2.426381,48.625788
2021-435713,2021-01-06,000001,Vente,132000,13,,RUE DE SION,1058,91000,91228,Évry-Courcouronnes,91,,,91228000AB0175,,,342,,,,,,,,,,1,3,Dépendance,,0,,,,,,2.433476,48.641092
2021-435713,2021-01-06,000001,Vente,132000,3,,RUE DE SION,1058,91000,91228,Évry-Courcouronnes,91,,,91228000AB0175,,,5,68.1,,,,,,,,,1,2,Appartement,67,3,,,,,,2.433476,48.641092
2021-435714,2021-01-06,000001,Vente,425000,46,,RES LES BOIS DU CERF,A030,91450,91225,Étiolles,91,,,91225000AN0004,,,1228,173.74,,,,,,,,,1,1,Maison,168,6,,,,,,2.479007,48.637993
2021-435715,2021-01-04,000001,Vente,129000,53,,BD DE L'YERRES,3115,91000,91228,Évry-Courcouronnes,91,,,91228000AZ0213,,,177,,,,,,,,,,1,3,Dépendance,,0,,,,,,2.430706,48.618236
2021-435715,2021-01-04,000001,Vente,129000,53,,BD DE L'YERRES,3115,91000,91228,Évry-Courcouronnes,91,,,91228000AZ0213,,,178,,,,,,,,,,1,3,Dépendance,,0,,,,,,2.430706,48.618236
2021-435715,2021-01-04,000001,Vente,129000,53,,BD DE L'YERRES,3115,91000,91228,Évry-Courcouronnes,91,,,91228000AZ0213,,,21,64.23,,,,,,,,,1,2,Appartement,50,3,,,,,,2.430706,48.618236
2021-435716,2021-01-06,000001,Vente,339000,5,,ALL JEAN RENOIR,2300,91130,91521,Ris-Orangis,91,,,91521000BI0056,,,,,,,,,,,,,0,1,Maison,88,4,S,sols,,,434,2.432402,48.648735
2021-435717,2021-01-06,000001,Vente,223300,3,,RUE PAUL DOITTAU,3575,91100,91174,Corbeil-Essonnes,91,,,91174000AC0570,,,,,,,,,,,,,0,1,Maison,80,4,S,sols,,,147,2.462106,48.613582
2021-435718,2021-01-06,000001,Vente,370000,2,,ALL DES LILAS,1100,91560,91191,Crosne,91,,,91191000AD0112,,,,,,,,,,,,,0,1,Maison,110,5,S,sols,,,338,2.458632,48.71956
2021-435719,2021-01-06,000001,Vente,153000,13,,RUE DE L'ARCHE,0070,91090,91340,Lisses,91,,,91340000AL0284,,,32,39.42,,,,,,,,,1,2,Appartement,40,2,,,,,,2.424067,48.605772
2021-435719,2021-01-06,000001,Vente,153000,13,,RUE DE L'ARCHE,0070,91090,91340,Lisses,91,,,91340000AL0284,,,8,,,,,,,,,,1,3,Dépendance,,0,,,,,,2.424067,48.605772
2021-435720,2021-01-08,000001,Vente,128000,5,,RUE JEAN PIESTRE,2365,91100,91174,Corbeil-Essonnes,91,,,91174000BI0236,,,50,55.1,,,,,,,,,1,2,Appartement,54,3,,,,,,2.468944,48.590141
2021-435720,2021-01-08,000001,Vente,128000,7,,RUE JEAN PIESTRE,2365,91100,91174,Corbeil-Essonnes,91,,,91174000BI0236,,,98,,,,,,,,,,1,3,Dépendance,,0,,,,,,2.468944,48.590141
2021-435721,2021-01-05,000001,Vente,130000,23,,RUE DE LA TOUR,3027,91000,91228,Évry-Courcouronnes,91,,,91228000BV0136,,,118,,,,,,,,,,1,3,Dépendance,,0,,,,,,2.461888,48.624358
2021-435721,2021-01-05,000001,Vente,130000,23,,RUE DE LA TOUR,3027,91000,91228,Évry-Courcouronnes,91,,,91228000BV0136,,,117,,,,,,,,,,1,3,Dépendance,,0,,,,,,2.461888,48.624358
2021-435721,2021-01-05,000001,Vente,130000,21,,RUE DE LA TOUR,3027,91000,91228,Évry-Courcouronnes,91,,,91228000BV0136,,,21,,,,,,,,,,1,2,Appartement,69,3,,,,,,2.461888,48.624358
2021-435722,2021-01-05,000001,Vente en l'état futur d'achèvement,328000,57,,RUE DES GLAISES,1640,91800,91114,Brunoy,91,,,91114000AM0129,,,3,,,,,,,,,,1,,,,,,,,,,2.48915,48.698017
2021-435722,2021-01-05,000001,Vente en l'état futur d'achèvement,328000,57,,RUE DES GLAISES,1640,91800,91114,Brunoy,91,,,91114000AM0129,,,78,,,,,,,,,,1,,,,,,,,,,2.48915,48.698017
2021-435723,2021-01-08,000001,Vente,865000,3,,ALL DE L'INDUSTRIE,0984,91560,91191,Crosne,91,,,91191000AB0256,,,,,,,,,,,,,0,4,Local industriel. commercial ou assimilé,578,0,S,sols,,,978,2.473357,48.725857
2021-435724,2021-01-04,000001,Vente,335000,5,,PL DES MEULES,0855,91540,91386,Mennecy,91,,,91386000AH0030,,,,,,,,,,,,,0,1,Maison,98,6,S,sols,,,660,2.438422,48.551417
2021-435725,2021-01-06,000001,Vente,388500,34,,RUE DU GENERAL LECLERC,0570,91480,91514,Quincy-sous-Sénart,91,,,91514000AI0561,,,,,,,,,,,,,0,1,Maison,123,5,S,sols,,,521,2.538169,48.667558
2021-435726,2021-01-08,000001,Vente,149000,3,,RUE AMELIE EVRARD,0120,91230,91421,Montgeron,91,,,91421000AK0351,,,163,,,,,,,,,,1,3,Dépendance,,0,,,,,,2.462923,48.703299
2021-435726,2021-01-08,000001,Vente,149000,3,,RUE AMELIE EVRARD,0120,91230,91421,Montgeron,91,,,91421000AK0351,,,161,41.78,162,,,,,,,,2,2,Appartement,32,1,,,,,,2.462923,48.703299
2021-435727,2021-01-08,000001,Vente,181600,1,,PL CHRISTOPHE COLOMB,0336,91000,91228,Évry-Courcouronnes,91,,,91228000AI0002,,,23,76.96,,,,,,,,,1,2,Appartement,77,4,,,,,,2.450939,48.62237
2021-435728,2021-01-08,000001,Vente,102000,33,,RUE DU MARQUIS DE RAIES,3225,91080,91228,Évry-Courcouronnes,91,,,91228182AP0089,,,47,,,,,,,,,,1,3,Dépendance,,0,,,,,,2.42017,48.628651
2021-435728,2021-01-08,000001,Vente,102000,33,,RUE DU MARQUIS DE RAIES,3225,91080,91228,Évry-Courcouronnes,91,,,91228182AP0089,,,31,38.2,,,,,,,,,1,2,Appartement,39,2,,,,,,2.42017,48.628651
2021-435729,2021-01-07,000001,Vente,117000,1,,RUE LOUIS ROBERT,2830,91100,91174,Corbeil-Essonnes,91,,,91174000AO0395,,,10,,13,10.7,23,,6,,7,42.61,5,2,Appartement,44,3,,,,,,2.477341,48.604385
2021-435729,2021-01-07,000001,Vente,117000,1,,RUE LOUIS ROBERT,2830,91100,91174,Corbeil-Essonnes,91,,,91174000AO0395,,,1,,,,,,,,,,1,3,Dépendance,,0,,,,,,2.477341,48.604385
2021-435730,2021-01-07,000001,Vente,155430,3,,RUE DE LA RESIDENCE EN BOIS,2305,91130,91521,Ris-Orangis,91,,,91521000AD0349,,,42,50.05,,,,,,,,,1,2,Appartement,50,2,,,,,,2.415609,48.659216
2021-435730,2021-01-07,000001,Vente,155430,3,,RUE DE LA RESIDENCE EN BOIS,2305,91130,91521,Ris-Orangis,91,,,91521000AD0349,,,96,,,,,,,,,,1,3,Dépendance,,0,,,,,,2.415609,48.659216
2021-435731,2021-01-11,000001,Vente,270000,9,,RUE MAURICE BERTEAUX,2970,91100,91174,Corbeil-Essonnes,91,,,91174000AN0067,,,,,,,,,,,,,0,1,Maison,51,3,S,sols,,,200,2.474291,48.605822
2021-435731,2021-01-11,000001,Vente,270000,9,,RUE MAURICE BERTEAUX,2970,91100,91174,Corbeil-Essonnes,91,,,91174000AN0067,,,,,,,,,,,,,0,1,Maison,51,3,J,jardins,POTAG,Jardin potager,258,2.474291,48.605822
2021-435732,2021-01-07,000001,Vente,150000,39,,RUE DE LA MONTAGNE DES GLAISES,2025,91100,91174,Corbeil-Essonnes,91,,,91174000AD0010,,,20,,,,,,,,,,1,3,Dépendance,,0,,,,,,2.464542,48.610696
2021-435732,2021-01-07,000001,Vente,150000,39,,RUE DE LA MONTAGNE DES GLAISES,2025,91100,91174,Corbeil-Essonnes,91,,,91174000AD0010,,,27,,,,,,,,,,1,3,Dépendance,,0,,,,,,2.464542,48.610696
2021-435732,2021-01-07,000001,Vente,150000,39,,RUE DE LA MONTAGNE DES GLAISES,2025,91100,91174,Corbeil-Essonnes,91,,,91174000AD0010,,,5,,7,79.24,,,,,,,2,2,Appartement,81,3,,,,,,2.464542,48.610696
2021-435733,2021-01-08,000001,Vente,160000,7,,MAIL RENE CLAIR,3290,91080,91228,Évry-Courcouronnes,91,,,91228182AP0077,,,170,76.45,215,,,,,,,,2,2,Appartement,83,4,,,,,,2.422291,48.628371
2021-435733,2021-01-08,000001,Vente,160000,7,,MAIL RENE CLAIR,3290,91080,91228,Évry-Courcouronnes,91,,,91228182AP0077,,,239,,,,,,,,,,1,3,Dépendance,,0,,,,,,2.422291,48.628371
2021-435734,2021-01-08,000001,Vente,132000,10,,RUE DES MARAIS,2860,91100,91174,Corbeil-Essonnes,91,,,91174000BC0015,,,3,,,,,,,,,,1,3,Dépendance,,0,,,,,,2.470927,48.584827
2021-435734,2021-01-08,000001,Vente,132000,10,,RUE DES MARAIS,2860,91100,91174,Corbeil-Essonnes,91,,,91174000BC0015,,,2,,3,,,,,,,,2,2,Appartement,66,4,,,,,,2.470927,48.584827
2021-435735,2021-01-08,000001,Vente,270000,18,,AV DU PARC AUX BICHES,0852,91000,91228,Évry-Courcouronnes,91,,,91228000BK0073,,,,,,,,,,,,,0,1,Maison,104,5,S,sols,,,210,2.440782,48.64291
2021-435736,2021-01-11,000001,Vente,230700,12,,RUE AUGUSTE RODIN,0342,91100,91174,Corbeil-Essonnes,91,,,91174000AL0521,,,4,,,,,,,,,,1,3,Dépendance,,0,,,,,,2.486622,48.608173
2021-435736,2021-01-11,000001,Vente,230700,10,,RUE ANTOINE BOURDELLE,0215,91100,91174,Corbeil-Essonnes,91,,,91174000AL0525,,,,,,,,,,,,,0,1,Maison,77,4,S,sols,,,108,2.486826,48.608508
2021-435737,2021-01-11,000001,Vente,120000,54,B,AV PASTEUR,2920,91330,91691,Yerres,91,,,91691000AY0749,,,21,,7,28.21,,,,,,,2,2,Appartement,29,1,,,,,,2.482248,48.694483
2021-435737,2021-01-11,000001,Vente,120000,54,B,AV PASTEUR,2920,91330,91691,Yerres,91,,,91691000AY0749,,,52,,,,,,,,,,1,3,Dépendance,,0,,,,,,2.482248,48.694483
2021-435738,2021-01-07,000001,Vente,388875,22,,ALL DES CHENES,0140,91090,91340,Lisses,91,,,91340000AE0252,,,,,,,,,,,,,0,1,Maison,159,5,S,sols,,,632,2.415236,48.609093
2021-435739,2021-01-11,000001,Vente,111000,15,,ALL BOISSY D ANGLAS,0198,91000,91228,Évry-Courcouronnes,91,,,91228000AZ0090,,,1002,,,,,,,,,,1,3,Dépendance,,0,,,,,,2.428606,48.62054
2021-435739,2021-01-11,000001,Vente,111000,15,,ALL BOISSY D ANGLAS,0198,91000,91228,Évry-Courcouronnes,91,,,91228000AZ0090,,,5027,,,,,,,,,,1,2,Appartement,29,1,,,,,,2.428606,48.62054
2021-435740,2021-01-11,000001,Vente,171000,6,,RUE ANDRE LALANDE,0072,91000,91228,Évry-Courcouronnes,91,,,91228000AP0205,,,1146,62.34,,,,,,,,,1,2,Appartement,63,3,,,,,,2.426381,48.625788
2021-435740,2021-01-11,000001,Vente,171000,6,,RUE ANDRE LALANDE,0072,91000,91228,Évry-Courcouronnes,91,,,91228000AP0205,,,1225,,,,,,,,,,1,3,Dépendance,,0,,,,,,2.426381,48.625788
2021-435741,2021-01-11,000001,Vente,107000,2,,ALL JOHN FORD,3282,91080,91228,Évry-Courcouronnes,91,,,91228182AP0057,,,124,,197,,,,,,,,2,2,Appartement,48,2,,,,,,2.422225,48.628777
2021-435741,2021-01-11,000001,Vente,107000,2,,ALL JOHN FORD,3282,91080,91228,Évry-Courcouronnes,91,,,91228182AP0057,,,131,,,,,,,,,,1,3,Dépendance,,0,,,,,,2.422225,48.628777
2021-435742,2021-01-08,000001,Vente,73000,69,,RUE DE GOURNAY,2040,91100,91174,Corbeil-Essonnes,91,,,91174000AS0324,,,112,17.88,116,,,,,,,,2,2,Appartement,23,1,,,,,,2.476575,48.602705
2021-435743,2021-01-12,000001,Vente,118000,13,,RUE JULES VALLES,0718,91000,91228,Évry-Courcouronnes,91,,,91228000AT0084,,,43,52.69,60,,,,,,,,2,2,Appartement,52,2,,,,,,2.426988,48.636617
2021-435744,2021-01-12,000001,Vente,260000,38,,RUE LA FONTAINE,2560,91100,91174,Corbeil-Essonnes,91,,,91174000BR0027,,,,,,,,,,,,,0,1,Maison,96,6,S,sols,,,362,2.456454,48.608311
2021-435745,2021-01-12,000001,Vente,105400,9002,,SQ DE LA BORNE,3167,91080,91228,Évry-Courcouronnes,91,,,91228182AN0016,,,52,,,,,,,,,,1,3,Dépendance,,0,,,,,,2.411957,48.631873
2021-435745,2021-01-12,000001,Vente,105400,7,,SQ DE LA BORNE,3167,91080,91228,Évry-Courcouronnes,91,,,91228182AN0016,,,4,56.76,,,,,,,,,1,2,Appartement,55,2,,,,,,2.411957,48.631873
2021-435746,2021-01-12,000001,Vente,119000,41,,RUE DU BAS COUDRAY,0460,91100,91174,Corbeil-Essonnes,91,,,91174000AR0327,,,5,,55,38.51,,,,,,,2,2,Appartement,39,2,,,,,,2.4865,48.6028
2021-435746,2021-01-12,000001,Vente,119000,41,,RUE DU BAS COUDRAY,0460,91100,91174,Corbeil-Essonnes,91,,,91174000AR0327,,,81,,,,,,,,,,1,3,Dépendance,,0,,,,,,2.4865,48.6028
2021-435747,2021-01-12,000001,Vente,13800,2,B,RUE JEAN RENOIR,3272,91080,91228,Évry-Courcouronnes,91,,,91228182AP0087,,,132,12,,,,,,,,,1,3,Dépendance,,0,,,,,,2.420445,48.629635
2021-435748,2021-01-12,000001,Vente,161200,1,,SQ DU TROU ROUGE,3261,91080,91228,Évry-Courcouronnes,91,,,91228182AN0028,,,21,79.91,,,,,,,,,1,2,Appartement,84,4,,,,,,2.410896,48.632865
2021-435748,2021-01-12,000001,Vente,161200,9001,,SQ DU TROU ROUGE,3261,91080,91228,Évry-Courcouronnes,91,,,91228182AN0028,,,65,,,,,,,,,,1,3,Dépendance,,0,,,,,,2.410896,48.632865
2021-435749,2021-01-13,000001,Vente,308000,17,Q,RUE DE LA STATION,0620,91610,91045,Ballancourt-sur-Essonne,91,,,91045000AS0089,,,,,,,,,,,,,0,1,Maison,86,5,S,sols,,,778,2.374783,48.534654
2021-435750,2021-01-08,000001,Vente,340000,1,,RUE ARMAND CACHAT,0190,91230,91421,Montgeron,91,,,91421000AP0491,,,,,,,,,,,,,0,1,Maison,96,5,S,sols,,,200,2.457384,48.699234
2021-435751,2021-01-08,000001,Vente,185000,5,,RUE ROYALE,0200,91750,91135,Champcueil,91,,,91135000AC0100,,,2,122.01,,,,,,,,,1,2,Appartement,155,6,,,,,,2.444832,48.514574
2021-435751,2021-01-08,000001,Vente,185000,5,T,RUE ROYALE,0200,91750,91135,Champcueil,91,,,91135000AC0100,,,5,,,,,,,,,,1,3,Dépendance,,0,,,,,,2.444832,48.514574
2021-435752,2021-01-11,000001,Vente,118000,15,,RUE DU BESLY,0550,91800,91097,Boussy-Saint-Antoine,91,,,91097000AE0096,,,150,,60,74.45,,,,,,,2,2,Appartement,72,5,,,,,,2.53534,48.687404
2021-435753,2021-01-11,000001,Vente,200000,,,RUE DES BOTTEAUX,0025,91810,91648,Vert-le-Grand,91,,,91648000AA0203,,,,,,,,,,,,,0,,,,,AB,terrains a bâtir,,,547,2.35513,48.574372
2021-435754,2021-01-11,000001,Vente,255000,28,,RUE DU COMMANDANT BOUCHET,0685,91270,91657,Vigneux-sur-Seine,91,,,91657000AI0932,,,,,,,,,,,,,0,1,Maison,81,5,S,sols,,,276,2.431237,48.70189
2021-435754,2021-01-11,000001,Vente,255000,13,B,RUE DU COMMANDANT BOUCHET,0685,91270,91657,Vigneux-sur-Seine,91,,,91657000AI1210,,,3,,,,,,,,,,1,3,Dépendance,,0,,,,,,2.431585,48.702453
2021-435755,2021-01-14,000001,Vente,69500,6,,RUE MARCHAND,2900,91100,91174,Corbeil-Essonnes,91,,,91174000BO0095,,,6,38.15,,,,,,,,,1,2,Appartement,38,2,,,,,,2.467077,48.604205
2021-435756,2021-01-14,000001,Vente,102000,6,,ALL DES CEDRES,0650,91800,91097,Boussy-Saint-Antoine,91,,,91097000AE0096,,,453,63.57,,,,,,,,,1,2,Appartement,65,3,,,,,,2.53534,48.687404
2021-435757,2021-01-14,000001,Vente,225000,35,N,RUE PAUL CLAUDEL,2797,91000,91228,Évry-Courcouronnes,91,,,91228000AT0043,,,229,80.03,296,,,,,,,,2,1,Maison,80,4,,,,,,2.428181,48.638093
2021-435758,2021-01-14,000001,Vente,150000,16,,RUE KRUGER,2490,91100,91174,Corbeil-Essonnes,91,,,91174000AP0092,,,10,,11,,2,41.08,,,,,3,2,Appartement,30,2,,,,,,2.488145,48.605665
2021-435758,2021-01-14,000001,Vente,150000,16,,RUE KRUGER,2490,91100,91174,Corbeil-Essonnes,91,,,91174000AP0092,,,14,,,,,,,,,,1,3,Dépendance,,0,,,,,,2.488145,48.605665
2021-435759,2021-01-12,000001,Echange,5445,,,RUE DES CHEVRES,0030,91250,91577,Saintry-sur-Seine,91,,,91577000AL0467,,,,,,,,,,,,,0,,,,,S,sols,,,48,2.49673,48.604226
2021-435760,2021-01-12,000002,Echange,5456,,,RUE DES CHEVRES,0030,91250,91577,Saintry-sur-Seine,91,,,91577000AL0463,,,,,,,,,,,,,0,,,,,AB,terrains a bâtir,,,248,2.497032,48.604297
2021-435761,2021-01-14,000001,Vente,265000,9137,,RUE JEAN BAPTISTE CLEMENT,1600,91130,91521,Ris-Orangis,91,,,91521000BA0181,,,,,,,,,,,,,0,3,Dépendance,,0,S,sols,,,17,2.413655,48.639744
2021-435761,2021-01-14,000001,Vente,265000,40,,RUE JEAN BAPTISTE CLEMENT,1600,91130,91521,Ris-Orangis,91,,,91521000BA0200,,,,,,,,,,,,,0,1,Maison,90,5,S,sols,,,115,2.414356,48.639893
2021-435761,2021-01-14,000001,Vente,265000,,,LE TURPIN SUR L AUNETTE,B030,91130,91521,Ris-Orangis,91,,,91521000BA0524,,,,,,,,,,,,,0,,,,,S,sols,,,4,2.414497,48.639845
2021-435761,2021-01-14,000001,Vente,265000,40,,RUE JEAN BAPTISTE CLEMENT,1600,91130,91521,Ris-Orangis,91,,,91521000BA0760,,,,,,,,,,,,,0,,,,,S,sols,,,19,2.414223,48.639925
2021-435762,2021-01-14,000001,Vente,220000,2,,RUE DE LA BAIGNADE,0236,91130,91521,Ris-Orangis,91,,,91521000AH0853,,,104,,,,,,,,,,1,2,Appartement,62,3,,,,,,2.417303,48.655912
2021-435762,2021-01-14,000001,Vente,220000,2,,RUE DE LA BAIGNADE,0236,91130,91521,Ris-Orangis,91,,,91521000AH0853,,,149,,,,,,,,,,1,3,Dépendance,,0,,,,,,2.417303,48.655912
2021-435763,2021-01-14,000001,Vente,122265,3,,RUE DE LA RESIDENCE EN BOIS,2305,91130,91521,Ris-Orangis,91,,,91521000AD0349,,,36,37.45,,,,,,,,,1,2,Appartement,37,2,,,,,,2.415609,48.659216
2021-435763,2021-01-14,000001,Vente,122265,3,,RUE DE LA RESIDENCE EN BOIS,2305,91130,91521,Ris-Orangis,91,,,91521000AD0349,,,90,,,,,,,,,,1,3,Dépendance,,0,,,,,,2.415609,48.659216
2021-435764,2021-01-14,000001,Vente,285000,3,,RUE DU STADE,0281,91250,91577,Saintry-sur-Seine,91,,,91577000AC0355,,,,,,,,,,,,,0,1,Maison,94,5,S,sols,,,411,2.49441,48.590791
2021-435765,2021-01-15,000001,Vente,149000,3,,ALL LOUIS TILLET,0159,91250,91553,Saint-Germain-lès-Corbeil,91,,,91553000AK0033,,,45,,,,,,,,,,1,2,Appartement,37,2,,,,,,2.491848,48.629763
2021-435765,2021-01-15,000001,Vente,149000,3,,ALL LOUIS TILLET,0159,91250,91553,Saint-Germain-lès-Corbeil,91,,,91553000AK0033,,,60,,,,,,,,,,1,3,Dépendance,,0,,,,,,2.491848,48.629763
2021-435766,2021-01-15,000001,Vente,271000,44,,RUE DU PONT LEVIS,2812,91000,91228,Évry-Courcouronnes,91,,,91228000BV0118,,,,,,,,,,,,,0,1,Maison,76,4,S,sols,,,289,2.460211,48.623788
2021-435767,2021-01-15,000001,Vente,45000,39,,BD JEAN JAURES,2330,91100,91174,Corbeil-Essonnes,91,,,91174000BR0179,,,3,19.63,6,,,,,,,,2,2,Appartement,24,1,,,,,,2.464556,48.607504
2021-435768,2021-01-15,000001,Vente,355870,9,,RUE DE ST CLOUD,1204,91540,91386,Mennecy,91,,,91386000AM0007,,,,,,,,,,,,,0,1,Maison,122,7,S,sols,,,736,2.424656,48.551704
2021-435769,2021-01-05,000001,Vente,385000,29,,RUE ORDENER,2010,91130,91521,Ris-Orangis,91,,,91521000AH0334,,,,,,,,,,,,,0,4,Local industriel. commercial ou assimilé,197,0,S,sols,,,359,2.416873,48.653334
2021-435770,2021-01-15,000001,Vente,365000,3,,ALL DE CHATRES,0041,91810,91648,Vert-le-Grand,91,,,91648000AH0044,,,,,,,,,,,,,0,1,Maison,122,6,S,sols,,,601,2.353392,48.568521
2021-435771,2021-01-15,000001,Vente en l'état futur d'achèvement,204502,42,,BD CHARLES DE GAULLE,0197,91540,91386,Mennecy,91,,,91386000BI0182,,,24,,,,,,,,,,1,2,Appartement,58,3,,,,,,2.439774,48.565836
2021-435771,2021-01-15,000001,Vente en l'état futur d'achèvement,204502,42,,BD CHARLES DE GAULLE,0197,91540,91386,Mennecy,91,,,91386000BI0182,,,61,,,,,,,,,,1,3,Dépendance,,0,,,,,,2.439774,48.565836
2021-435772,2021-01-15,000001,Vente,215000,15,,SQ DES VOILES,3269,91080,91228,Évry-Courcouronnes,91,,,91228182AL0020,,,46,69.34,63,,,,,,,,2,2,Appartement,69,3,,,,,,2.420642,48.616019
2021-435772,2021-01-15,000001,Vente,215000,9002,,RUE DE LA DAME DU LAC,3183,91080,91228,Évry-Courcouronnes,91,,,91228182AL0020,,,111,,,,,,,,,,1,3,Dépendance,,0,,,,,,2.420642,48.616019
2021-435773,2021-01-15,000001,Vente,207000,48,,RUE DU BAS COUDRAY,0460,91100,91174,Corbeil-Essonnes,91,,,91174000AR0083,,,12,10,,,,,,,,,1,3,Dépendance,,0,,,,,,2.48469,48.601369
2021-435773,2021-01-15,000001,Vente,207000,48,,RUE DU BAS COUDRAY,0460,91100,91174,Corbeil-Essonnes,91,,,91174000AR0083,,,5,,6,59.4,,,,,,,2,2,Appartement,59,3,,,,,,2.48469,48.601369
2021-435774,2021-01-15,000001,Vente,160000,9,,VLA JEAN BAPTISTE DUMAY,2580,91000,91228,Évry-Courcouronnes,91,,,91228000AY0152,,,31,88.7,,,,,,,,,1,2,Appartement,89,4,,,,,,2.438797,48.622349
2021-435774,2021-01-15,000001,Vente,160000,2,,VLA JEAN BAPTISTE DUMAY,2580,91000,91228,Évry-Courcouronnes,91,,,91228000AY0152,,,1,,,,,,,,,,1,3,Dépendance,,0,,,,,,2.438797,48.622349
2021-435775,2021-01-05,000001,Vente,110000,23,,AV DE LA REPUBLIQUE,3450,91230,91421,Montgeron,91,,,91421000AB0132,,,12,32.88,,,,,,,,,1,2,Appartement,30,1,,,,,,2.45294,48.708785
2021-435776,2021-01-05,000001,Vente,580000,24,,SQ FRANCOIS DE MALHERBE,0573,91450,91600,Soisy-sur-Seine,91,,,91600000AB0015,,,,,,,,,,,,,0,1,Maison,219,8,S,sols,,,737,2.458174,48.653614
2021-435777,2021-01-08,000001,Vente,232000,3,,RUE COURBET,0320,91480,91514,Quincy-sous-Sénart,91,,,91514000AD0017,,,75,55.78,,,,,,,,,1,1,Maison,56,3,,,,,,2.533537,48.67825
2021-435778,2021-01-08,000001,Vente,265000,25,,RUE DE LA REPUBLIQUE,3330,91800,91114,Brunoy,91,,,91114000AB0376,,,110,,,,,,,,,,1,3,Dépendance,,0,,,,,,2.504607,48.699497
2021-435778,2021-01-08,000001,Vente,265000,27,,RUE DE LA REPUBLIQUE,3330,91800,91114,Brunoy,91,,,91114000AB0376,,,58,75.72,,,,,,,,,1,2,Appartement,76,3,,,,,,2.504607,48.699497
2021-435778,2021-01-08,000001,Vente,265000,27,,RUE DE LA REPUBLIQUE,3330,91800,91114,Brunoy,91,,,91114000AB0376,,,64,,,,,,,,,,1,3,Dépendance,,0,,,,,,2.504607,48.699497
2021-435778,2021-01-08,000001,Vente,265000,25,,RUE DE LA REPUBLIQUE,3330,91800,91114,Brunoy,91,,,91114000AB0376,,,177,,,,,,,,,,1,3,Dépendance,,0,,,,,,2.504607,48.699497
2021-435779,2021-01-08,000001,Vente,319000,54,,RUE DES BERGERONNETTES,0122,91540,91386,Mennecy,91,,,91386000AC0103,,,,,,,,,,,,,0,1,Maison,116,6,S,sols,,,210,2.426906,48.55642
2021-435780,2021-01-11,000001,Vente,125000,3,,RUE DES FRENES,1855,91100,91174,Corbeil-Essonnes,91,,,91174000AR0378,,,87,,,,,,,,,,1,3,Dépendance,,0,,,,,,2.481639,48.599841
2021-435780,2021-01-11,000001,Vente,125000,3,,RUE DES FRENES,1855,91100,91174,Corbeil-Essonnes,91,,,91174000AR0378,,,15,42,,,,,,,,,1,2,Appartement,42,2,,,,,,2.481639,48.599841
2021-435781,2021-01-08,000001,Vente,205000,5,,CHE DE LA CROIX AUVERT,0135,91610,91045,Ballancourt-sur-Essonne,91,,,91045000AS0166,,,,,,,,,,,,,0,1,Maison,55,3,S,sols,,,460,2.376174,48.53349
2021-435782,2021-01-08,000001,Vente,203000,24,,RUE DE MILLY,0860,91540,91386,Mennecy,91,,,91386000BK0233,,,3,79.98,,,,,,,,,1,2,Appartement,70,3,,,,,,2.433021,48.565027
2021-435783,2021-01-06,000001,Vente,380000,12,,RLE MARIN DENIS,0050,91750,91159,Chevannes,91,,,911590000H0064,,,,,,,,,,,,,0,1,Maison,175,6,AG,terrains d'agrément,PARC,Parc,424,2.446624,48.530117
2021-435783,2021-01-06,000001,Vente,380000,12,,RLE MARIN DENIS,0050,91750,91159,Chevannes,91,,,911590000H0064,,,,,,,,,,,,,0,1,Maison,175,6,S,sols,,,500,2.446624,48.530117
2021-435784,2021-01-08,000001,Vente,246000,49,,RUE MARIE ROCHE,0385,91090,91340,Lisses,91,,,91340000AM0242,,,,,,,,,,,,,0,1,Maison,76,4,S,sols,,,173,2.431005,48.601013
2021-435785,2021-01-11,000001,Vente,341000,5,,RUE DES LYS,0815,91540,91386,Mennecy,91,,,91386000AI0420,,,,,,,,,,,,,0,1,Maison,126,7,S,sols,,,630,2.43051,48.550874
2021-435786,2021-01-05,000001,Vente,662000,5,,ALL DE LA TERRASSE,4030,91210,91201,Draveil,91,,,91201000AC0298,,,,,,,,,,,,,0,1,Maison,146,6,J,jardins,POTAG,Jardin potager,987,2.406812,48.686923
2021-435786,2021-01-05,000001,Vente,662000,5,,ALL DE LA TERRASSE,4030,91210,91201,Draveil,91,,,91201000AC0298,,,,,,,,,,,,,0,1,Maison,146,6,S,sols,,,503,2.406812,48.686923
2021-435787,2021-01-08,000001,Vente,74000,6,,RUE CHARLIE CHAPLIN,3341,91080,91228,Évry-Courcouronnes,91,,,91228182AP0087,,,145,,,,,,,,,,1,3,Dépendance,,0,,,,,,2.420445,48.629635
2021-435787,2021-01-08,000001,Vente,74000,6,,RUE CHARLIE CHAPLIN,3341,91080,91228,Évry-Courcouronnes,91,,,91228182AP0087,,,67,26.17,,,,,,,,,1,2,Appartement,26,1,,,,,,2.420445,48.629635
2021-435788,2021-01-18,000001,Vente,135000,80,T,RUE FERAY,1700,91100,91174,Corbeil-Essonnes,91,,,91174000AN0334,,,2,,27,,,,,,,,2,2,Appartement,65,3,,,,,,2.472678,48.607214
2021-435788,2021-01-18,000001,Vente,135000,80,T,RUE FERAY,1700,91100,91174,Corbeil-Essonnes,91,,,91174000AN0334,,,102,,,,,,,,,,1,3,Dépendance,,0,,,,,,2.472678,48.607214
2021-435789,2021-01-15,000001,Vente en l'état futur d'achèvement,204000,18,,RUE DE LA SABLIERE,1200,91540,91386,Mennecy,91,,,91386000BK0020,,,161,,,,,,,,,,1,,,,,,,,,,2.437194,48.565655
2021-435789,2021-01-15,000001,Vente en l'état futur d'achèvement,204000,18,,RUE DE LA SABLIERE,1200,91540,91386,Mennecy,91,,,91386000BK0020,,,66,,,,,,,,,,1,,,,,,,,,,2.437194,48.565655
2021-435790,2021-01-18,000001,Vente,102000,13,,RUE FELICIEN ROPS,2880,91100,91174,Corbeil-Essonnes,91,,,91174000AH0164,,,55,,,,,,,,,,1,3,Dépendance,,0,,,,,,2.476529,48.612619
2021-435790,2021-01-18,000001,Vente,102000,13,,RUE FELICIEN ROPS,2880,91100,91174,Corbeil-Essonnes,91,,,91174000AH0164,,,3,,37,,,,,,,,2,2,Appartement,44,2,,,,,,2.476529,48.612619
2021-435791,2021-01-18,000001,Vente,105000,77,,RUE HENRI ROCHEFORT,0699,91000,91228,Évry-Courcouronnes,91,,,91228000AY0093,,,184,,41,,,,,,,,2,2,Appartement,81,4,,,,,,2.43765,48.623416
2021-435791,2021-01-18,000001,Vente,105000,77,,RUE HENRI ROCHEFORT,0699,91000,91228,Évry-Courcouronnes,91,,,91228000AY0093,,,120,,,,,,,,,,1,3,Dépendance,,0,,,,,,2.43765,48.623416
2021-435792,2021-01-18,000001,Vente,130000,16,,AV CHARLES GOUNOD,0380,91860,91215,Épinay-sous-Sénart,91,,,91215000AB0049,,,5,,,,,,,,,,1,2,Appartement,73,4,,,,,,2.522244,48.696148
2021-435792,2021-01-18,000001,Vente,130000,16,,AV CHARLES GOUNOD,0380,91860,91215,Épinay-sous-Sénart,91,,,91215000AB0049,,,95,,,,,,,,,,1,3,Dépendance,,0,,,,,,2.522244,48.696148
2021-435793,2021-01-15,000001,Vente,87750,54,,RUE DE PARIS,3520,91100,91174,Corbeil-Essonnes,91,,,91174000BL0098,,,12,,26,36.07,,,,,,,2,2,Appartement,38,2,,,,,,2.46943,48.601813
2021-435794,2021-01-13,000001,Vente,315000,23,,AV DES BONS PECHEURS,0390,91130,91521,Ris-Orangis,91,,,91521000BI0252,,,,,,,,,,,,,0,1,Maison,106,6,S,sols,,,382,2.433139,48.647521
2021-435795,2021-01-11,000001,Vente,268000,2,,AV MAIGNAN,2440,91210,91201,Draveil,91,,,91201000BE0595,,,,,,,,,,,,,0,1,Maison,72,4,S,sols,,,76,2.396102,48.684107
2021-435796,2021-01-12,000001,Vente,1800,1,B,RUE D'ALSACE LORRAINE,0140,91860,91215,Épinay-sous-Sénart,91,,,91215000AB0023,,,107,,,,,,,,,,1,3,Dépendance,,0,,,,,,2.520982,48.699232
2021-435797,2021-01-13,000001,Vente,135000,9002,,RUE DU BESLY,0550,91800,91097,Boussy-Saint-Antoine,91,,,91097000AE0096,,,398,,,,,,,,,,1,3,Dépendance,,0,,,,,,2.53534,48.687404
2021-435797,2021-01-13,000001,Vente,135000,5,,RUE DU BESLY,0550,91800,91097,Boussy-Saint-Antoine,91,,,91097000AE0096,,,820,,,,,,,,,,1,2,Appartement,83,4,,,,,,2.53534,48.687404
2021-435798,2021-01-19,000001,Vente,361000,1,,RUE DU CORMIER,0027,91070,91086,Bondoufle,91,,,91086000AM0080,,,,,,,,,,,,,0,1,Maison,132,4,S,sols,,,636,2.381464,48.617217
2021-435799,2021-01-15,000001,Vente,370000,3,,ALL DES ECUREUILS,0105,91830,91179,Le Coudray-Montceaux,91,,,91179000AD0238,,,,,,,,,,,,,0,1,Maison,121,4,S,sols,,,503,2.488074,48.56517
2021-435800,2021-01-19,000001,Vente,379000,12,,RUE DE LA PRAIRIE,0072,91750,91159,Chevannes,91,,,911590000F0141,,,,,,,,,,,,,0,1,Maison,126,5,S,sols,,,699,2.450765,48.532846
2021-435801,2021-01-15,000001,Vente,130000,27,,ALL BOISSY D ANGLAS,0198,91000,91228,Évry-Courcouronnes,91,,,91228000AZ0106,,,87,,,,,,,,,,1,3,Dépendance,,0,,,,,,2.42944,48.619675
2021-435801,2021-01-15,000001,Vente,130000,27,,ALL BOISSY D ANGLAS,0198,91000,91228,Évry-Courcouronnes,91,,,91228000AZ0106,,,229,41.63,,,,,,,,,1,2,Appartement,42,2,,,,,,2.42944,48.619675
2021-435802,2021-01-19,000001,Vente,78000,9001,,FRM DU TEMPLE,A050,91130,91521,Ris-Orangis,91,,,91521000AY0085,,,277,70.21,386,,,,,,,,2,2,Appartement,64,4,,,,,,2.409948,48.643558
2021-435802,2021-01-19,000001,Vente,78000,9001,,FRM DU TEMPLE,A050,91130,91521,Ris-Orangis,91,,,91521000AY0085,,,462,,,,,,,,,,1,3,Dépendance,,0,,,,,,2.409948,48.643558
2021-435803,2021-01-19,000001,Vente,277800,41,,RUE ANDROMEDE,0012,91100,91659,Villabé,91,,,91659000AE0660,,,,,,,,,,,,,0,1,Maison,110,5,S,sols,,,181,2.465682,48.586699
2021-435804,2021-01-19,000001,Vente,110000,3,,PL DE LA GARE,1240,91130,91521,Ris-Orangis,91,,,91521000AD0548,,,117,,22,,,,,,,,2,2,Appartement,61,3,,,,,,2.413884,48.658426
2021-435805,2021-01-11,000001,Vente,144000,53,,RUE CHARLES DE GAULLE,0665,91330,91691,Yerres,91,,,91691000AE0240,,,14,,16,35.7,18,,,,,,3,2,Appartement,35,2,,,,,,2.491435,48.715529
2021-435806,2021-01-08,000001,Vente,325000,57,,RUE DES VIOLETTES,3530,91270,91657,Vigneux-sur-Seine,91,,,91657000AO0070,,,,,,,,,,,,,0,1,Maison,105,4,S,sols,,,402,2.427975,48.701868
2021-435807,2021-01-19,000001,Vente,195000,4,,AV CASSIOPEE,0093,91100,91659,Villabé,91,,,91659000AE0035,,,51,,8,63.73,95,,,,,,3,2,Appartement,63,3,,,,,,2.463732,48.590427
2021-435808,2021-01-15,000001,Vente,260000,17,,AV CASSIOPEE,0093,91100,91659,Villabé,91,,,91659000AE0247,,,,,,,,,,,,,0,1,Maison,105,6,S,sols,,,203,2.46322,48.588839
2021-435809,2021-01-18,000001,Vente,97000,11,,RUE D'ANGOULEME,0210,91100,91174,Corbeil-Essonnes,91,,,91174000BL0064,,,4,,8,39.2,,,,,,,2,2,Appartement,40,2,,,,,,2.468025,48.602301
2021-435810,2021-01-15,000001,Vente,210000,6,,CHEM DU LYCEE,2835,91100,91174,Corbeil-Essonnes,91,,,91174000AC0095,,,,,,,,,,,,,0,1,Maison,72,3,S,sols,,,474,2.47049,48.612769
2021-435811,2021-01-15,000001,Vente,264800,9,,RUE ARMAND DUCLOS,0290,91100,91174,Corbeil-Essonnes,91,,,91174000AC0082,,,,,,,,,,,,,0,1,Maison,92,5,S,sols,,,307,2.470137,48.613616
2021-435812,2021-01-14,000001,Vente,220000,20,,RUE DE LA REPUBLIQUE,1090,91480,91514,Quincy-sous-Sénart,91,,,91514000AE0454,,,,,,,,,,,,,0,1,Maison,62,3,S,sols,,,371,2.537523,48.673305
2021-435812,2021-01-14,000001,Vente,220000,,,RUE DE LA REPUBLIQUE,1090,91480,91514,Quincy-sous-Sénart,91,,,91514000AE0484,,,,,,,,,,,,,0,,,,,S,sols,,,71,2.537406,48.673393
2021-435813,2021-01-13,000001,Vente,313280,9,,RUE DES OEILLETS,2480,91270,91657,Vigneux-sur-Seine,91,,,91657000AK0152,,,,,,,,,,,,,0,1,Maison,73,3,S,sols,,,408,2.438578,48.700164
2021-435814,2021-01-18,000001,Vente,290000,18,,AV DES SABLES DE ROUVRES,3753,91210,91201,Draveil,91,,,91201000AI1185,,,,,,,,,,,,,0,1,Maison,138,5,S,sols,,,350,2.428939,48.691105
2021-435815,2021-01-15,000001,Vente,367100,17,,RUE BOILEAU,0340,91330,91691,Yerres,91,,,91691000AW0553,,,,,,,,,,,,,0,1,Maison,85,3,S,sols,,,373,2.476071,48.696934
2021-435816,2021-01-15,000001,Vente,276000,8,,RUE JEAN MOULIN,2020,91210,91201,Draveil,91,,,91201000AE0259,,,11,,,,,,,,,,1,2,Appartement,80,4,,,,,,2.41143,48.686119
2021-435816,2021-01-15,000001,Vente,276000,8,,RUE JEAN MOULIN,2020,91210,91201,Draveil,91,,,91201000AE0259,,,123,,,,,,,,,,1,3,Dépendance,,0,,,,,,2.41143,48.686119
2021-435816,2021-01-15,000001,Vente,276000,8,,RUE JEAN MOULIN,2020,91210,91201,Draveil,91,,,91201000AE0259,,,124,,,,,,,,,,1,3,Dépendance,,0,,,,,,2.41143,48.686119
2021-435817,2021-01-15,000001,Vente,288000,58,,RUE DANTON,1070,91210,91201,Draveil,91,,,91201000AR0034,,,,,,,,,,,,,0,1,Maison,70,3,S,sols,,,481,2.408537,48.677338
2021-435818,2021-01-08,000001,Vente,210000,17,,AV DES SABLES DE ROUVRES,3753,91210,91201,Draveil,91,,,91201000AI1173,,,3,67.92,,,,,,,,,1,1,Maison,54,2,,,,,,2.428811,48.691629
2021-435819,2021-01-15,000001,Vente,115000,8,,SQ DU DAUPHINE,1250,91330,91691,Yerres,91,,,91691000AT0625,,,342,55,955,,,,,,,,2,2,Appartement,57,3,,,,,,2.485687,48.702191
2021-435819,2021-01-15,000001,Vente,115000,9001,,RES GAMBETTA,A050,91330,91691,Yerres,91,,,91691000AT0625,,,1568,,,,,,,,,,1,3,Dépendance,,0,,,,,,2.485687,48.702191
2021-435820,2021-01-05,000001,Vente en l'état futur d'achèvement,235000,17,,RUE JOSETTE POIRSON,0393,91070,91086,Bondoufle,91,,,910860000B0568,,,200,,,,,,,,,,1,,,,,,,,,,2.361994,48.614837
2021-435820,2021-01-05,000001,Vente en l'état futur d'achèvement,235000,17,,RUE JOSETTE POIRSON,0393,91070,91086,Bondoufle,91,,,910860000B0568,,,120,,,,,,,,,,1,,,,,,,,,,2.361994,48.614837
2021-435820,2021-01-05,000001,Vente en l'état futur d'achèvement,235000,17,,RUE JOSETTE POIRSON,0393,91070,91086,Bondoufle,91,,,910860000B0568,,,118,,,,,,,,,,1,,,,,,,,,,2.361994,48.614837
2021-435820,2021-01-05,000001,Vente en l'état futur d'achèvement,235000,17,,RUE JOSETTE POIRSON,0393,91070,91086,Bondoufle,91,,,910860000B0568,,,54,,,,,,,,,,1,,,,,,,,,,2.361994,48.614837
2021-435821,2021-01-20,000001,Vente,135000,49,,RUE HENRI ROCHEFORT,0699,91000,91228,Évry-Courcouronnes,91,,,91228000AY0017,,,22,67.52,,,,,,,,,1,2,Appartement,67,3,,,,,,2.438569,48.621355
2021-435821,2021-01-20,000001,Vente,135000,49,,RUE HENRI ROCHEFORT,0699,91000,91228,Évry-Courcouronnes,91,,,91228000AY0017,,,103,,,,,,,,,,1,3,Dépendance,,0,,,,,,2.438569,48.621355
2021-435822,2021-01-20,000001,Vente,90000,3,,RUE DU GAZ,1920,91100,91174,Corbeil-Essonnes,91,,,91174000BT0092,,,2,57.72,5,,,,,,,,2,2,Appartement,57,3,,,,,,2.476354,48.616548
2021-435823,2021-01-20,000001,Vente,148000,9001,,SQ LA BRUYERE,0230,91000,91228,Évry-Courcouronnes,91,,,91228000AC0056,,,695,,,,,,,,,,1,3,Dépendance,,0,,,,,,2.438264,48.636823
2021-435823,2021-01-20,000001,Vente,148000,5,,SQ LA BRUYERE,0230,91000,91228,Évry-Courcouronnes,91,,,91228000AC0056,,,255,65.84,274,,,,,,,,2,2,Appartement,65,3,,,,,,2.438264,48.636823
2021-435824,2021-01-08,000001,Vente,73000,37,,BD DECAUVILLE,0380,91000,91228,Évry-Courcouronnes,91,,,91228000BM0229,,,131,19.3,,,,,,,,,1,2,Appartement,19,1,,,,,,2.438466,48.639195
2021-435825,2021-01-12,000001,Vente,140000,45,,BD DECAUVILLE,0380,91000,91228,Évry-Courcouronnes,91,,,91228000BM0009,,,92,65.11,,,,,,,,,1,2,Appartement,68,3,,,,,,2.439602,48.637801
2021-435825,2021-01-12,000001,Vente,140000,45,,BD DECAUVILLE,0380,91000,91228,Évry-Courcouronnes,91,,,91228000BM0009,,,12,,,,,,,,,,1,3,Dépendance,,0,,,,,,2.439602,48.637801
2021-435826,2021-01-18,000001,Vente,252000,3,,RUE JEAN MARIE DJIBAOU,1755,91270,91657,Vigneux-sur-Seine,91,,,91657000AW0743,,,,,,,,,,,,,0,1,Maison,67,3,S,sols,,,193,2.409936,48.701525
2021-435827,2021-01-04,000001,Vente,155000,43,,RUE DES 3 CHENES,3820,91800,91114,Brunoy,91,,,91114000AP0236,,,12,58.31,212,,,,,,,,2,2,Appartement,57,3,,,,,,2.500805,48.70727
2021-435828,2021-01-04,000001,Vente,257500,110,,RUE GEORGES COUBARD,1525,91800,91097,Boussy-Saint-Antoine,91,,,91097000AC0012,,,,,,,,,,,,,0,1,Maison,115,5,S,sols,,,268,2.535098,48.69186
2021-435829,2021-01-15,000001,Vente,182000,80,,RUE AMPERE,0040,91610,91045,Ballancourt-sur-Essonne,91,,,91045000AT0387,,,,,,,,,,,,,0,,,,,AB,terrains a bâtir,,,643,2.377734,48.529773
2021-435829,2021-01-15,000001,Vente,182000,,,RUE AMPERE,0040,91610,91045,Ballancourt-sur-Essonne,91,,,91045000AT0388,,,,,,,,,,,,,0,,,,,AB,terrains a bâtir,,,31,2.3775,48.529388
2021-435829,2021-01-15,000001,Vente,182000,82,,RUE AMPERE,0040,91610,91045,Ballancourt-sur-Essonne,91,,,91045000AT0390,,,,,,,,,,,,,0,,,,,AB,terrains a bâtir,,,748,2.377413,48.529587
2021-435830,2021-01-11,000001,Vente,181500,9001,,RUE DE LA POULE ROUSSE,0946,91000,91228,Évry-Courcouronnes,91,,,91228000AS0130,,,107,,,,,,,,,,1,3,Dépendance,,0,,,,,,2.427707,48.63515
2021-435830,2021-01-11,000001,Vente,181500,202,,RUE DE LA POULE ROUSSE,0946,91000,91228,Évry-Courcouronnes,91,,,91228000AS0130,,,127,101.28,,,,,,,,,1,2,Appartement,106,5,,,,,,2.427707,48.63515
2021-435831,2021-01-21,000001,Vente,15000,1,,BD JULES VALLES,2440,91100,91174,Corbeil-Essonnes,91,,,91174000BO0197,,,22,,,,,,,,,,1,3,Dépendance,,0,,,,,,2.463266,48.602958
2021-435832,2021-01-21,000001,Vente,205000,8,,CHE DES HAUTES MONTELIEVRES,0065,91250,91435,Morsang-sur-Seine,91,,,91435000AE0114,,,,,,,,,,,,,0,,,,,AB,terrains a bâtir,,,875,2.492819,48.573498
2021-435832,2021-01-21,000001,Vente,205000,,,CHE DES HAUTES MONTELIEVRES,0065,91250,91435,Morsang-sur-Seine,91,,,91435000AE0117,,,,,,,,,,,,,0,,,,,AB,terrains a bâtir,,,512,2.49263,48.573436
2021-435833,2021-01-21,000001,Vente,87000,29,,QUAI MAURICE RIQUIEZ,2981,91100,91174,Corbeil-Essonnes,91,,,91174000BW0054,,,95,,,,,,,,,,1,3,Dépendance,,0,,,,,,2.488873,48.611865
2021-435833,2021-01-21,000001,Vente,87000,29,,QUAI MAURICE RIQUIEZ,2981,91100,91174,Corbeil-Essonnes,91,,,91174000BW0054,,,74,,,,,,,,,,1,3,Dépendance,,0,,,,,,2.488873,48.611865
2021-435833,2021-01-21,000001,Vente,87000,29,,QUAI MAURICE RIQUIEZ,2981,91100,91174,Corbeil-Essonnes,91,,,91174000BW0054,,,119,,,,,,,,,,1,2,Appartement,47,2,,,,,,2.488873,48.611865
2021-435834,2021-01-12,000001,Vente,295000,6,,CLOS DE LA HIBOUTIERE,1042,91800,91097,Boussy-Saint-Antoine,91,,,91097000AE0157,,,,,,,,,,,,,0,1,Maison,82,4,S,sols,,,261,2.535005,48.685054
2021-435835,2021-01-14,000001,Vente,147000,13,,BD JULES VALLES,2440,91100,91174,Corbeil-Essonnes,91,,,91174000BO0121,,,106,69.88,48,,,,,,,,2,2,Appartement,69,3,,,,,,2.461649,48.602387
2021-435836,2021-01-06,000001,Vente,332500,5,,AV DE MOUSSEAU,0800,91000,91228,Évry-Courcouronnes,91,,,91228000BP0075,,,,,,,,,,,,,0,1,Maison,90,5,S,sols,,,778,2.450152,48.631075
2021-435837,2021-01-13,000001,Vente,355000,28,,RUE AMEDEE FRAGUIER,0011,91250,91617,Tigery,91,,,91617000AE0061,,,,,,,,,,,,,0,1,Maison,107,5,S,sols,,,209,2.510057,48.636659
2021-435838,2021-01-13,000001,Vente,379300,5,,RUE ISAAC NEWTON,0072,91250,91617,Tigery,91,,,91617000AE0260,,,,,,,,,,,,,0,1,Maison,127,7,S,sols,,,416,2.508053,48.63564
2021-435839,2021-01-14,000001,Vente,308000,37,,CHE D'AMBREVILLE,0009,91100,91659,Villabé,91,,,91659000AE0429,,,,,,,,,,,,,0,1,Maison,106,4,S,sols,,,465,2.467406,48.586198
2021-435840,2021-01-08,000001,Vente,270000,8,,RUE DE LA PRAIRIE,0498,91070,91086,Bondoufle,91,,,91086000AA0049,,,,,,,,,,,,,0,1,Maison,97,5,S,sols,,,607,2.376753,48.612595
2021-435841,2021-01-18,000001,Vente en l'état futur d'achèvement,184500,,,,,,91228,Évry-Courcouronnes,91,,,91228000BE0019,,,104,,,,,,,,,,1,,,,,,,,,,2.420214,48.637576
2021-435841,2021-01-18,000001,Vente en l'état futur d'achèvement,184500,,,,,,91228,Évry-Courcouronnes,91,,,91228000BE0149,,,13,65,,,,,,,,,1,,,,,,,,,,2.420583,48.637112
2021-435842,2021-01-11,000001,Vente,265000,4,,PL PIERRE DU MOULIN,0048,91070,91086,Bondoufle,91,,,91086000AD0092,,,,,,,,,,,,,0,1,Maison,96,4,S,sols,,,230,2.375808,48.614732
2021-435843,2021-01-13,000001,Vente,310000,5,,RUE GUTENBERG,0370,91070,91086,Bondoufle,91,,,91086000AL0011,,,9,292.55,,,,,,,,,1,4,Local industriel. commercial ou assimilé,304,0,,,,,,2.390209,48.618092
2021-435844,2021-01-08,000001,Vente,305000,62,T,RUE DE ROBINSON,4190,91100,91174,Corbeil-Essonnes,91,,,91174000BP0422,,,,,,,,,,,,,0,1,Maison,99,5,S,sols,,,726,2.460308,48.60576
2021-435844,2021-01-08,000001,Vente,305000,62,,RUE DE ROBINSON,4190,91100,91174,Corbeil-Essonnes,91,,,91174000BP0423,,,,,,,,,,,,,0,,,,,S,sols,,,219,2.460485,48.605389
2021-435845,2021-01-19,000001,Vente,84000,17,,RUE DE LA PAPETERIE,3440,91100,91174,Corbeil-Essonnes,91,,,91174000BM0070,,,28,,29,,30,,31,,,,4,2,Appartement,31,1,,,,,,2.465357,48.59834
2021-435846,2021-01-20,000001,Vente,220000,11,,RUE ARMAND DUCLOS,0290,91100,91174,Corbeil-Essonnes,91,,,91174000AC0083,,,,,,,,,,,,,0,1,Maison,81,4,S,sols,,,308,2.470031,48.613596
2021-435847,2021-01-11,000001,Vente en l'état futur d'achèvement,297000,,,LE SAULE ST JACQUES,B014,91540,91468,Ormoy,91,,,91468000ZA1083,,,,,,,,,,,,,0,,,,,AB,terrains a bâtir,,,17,2.458241,48.566912
2021-435847,2021-01-11,000001,Vente en l'état futur d'achèvement,297000,,,LE SAULE ST JACQUES,B014,91540,91468,Ormoy,91,,,91468000ZA1086,,,,,,,,,,,,,0,,,,,AB,terrains a bâtir,,,166,2.458191,48.566874
2021-435848,2021-01-19,000001,Vente,143000,37,,ALL BOURGOIN,0014,91250,91577,Saintry-sur-Seine,91,,,91577000AK0053,,,85,,,,,,,,,,1,4,Local industriel. commercial ou assimilé,20,0,,,,,,2.493256,48.603599
2021-435849,2021-01-18,000001,Vente,279600,1,,RES L ARCADIE,A010,91250,91577,Saintry-sur-Seine,91,,,91577000AK0073,,,1,82.55,,,,,,,,,1,1,Maison,84,4,,,,,,2.492801,48.601992
2021-435850,2021-01-11,000001,Vente,320000,1,,IMP DES MAGNOLIAS,2080,91270,91657,Vigneux-sur-Seine,91,,,91657000BA0279,,,,,,,,,,,,,0,1,Maison,106,5,S,sols,,,403,2.440679,48.687767
2021-435851,2021-01-15,000001,Vente,145500,,,RUE DE LA TUILERIE,0230,91250,91553,Saint-Germain-lès-Corbeil,91,,,91553000AH0183,,,3,,,,,,,,,,1,2,Appartement,45,2,,,,,,2.490724,48.616358
2021-435852,2021-01-20,000001,Vente,260000,19,,RUE DE L OISEAU,1050,91450,91600,Soisy-sur-Seine,91,,,91600000AI0084,,,2,,41,,42,,43,,,,4,4,Local industriel. commercial ou assimilé,200,0,,,,,,2.450664,48.649408
2021-435853,2021-01-22,000001,Vente,110000,3,,IMP DU CANAL,0770,91100,91174,Corbeil-Essonnes,91,,,91174000BC0023,,,,,,,,,,,,,0,3,Dépendance,,0,S,sols,,,79,2.470591,48.585237
2021-435853,2021-01-22,000001,Vente,110000,3,,IMP DU CANAL,0770,91100,91174,Corbeil-Essonnes,91,,,91174000BC0023,,,,,,,,,,,,,0,3,Dépendance,,0,S,sols,,,79,2.470591,48.585237
2021-435853,2021-01-22,000001,Vente,110000,3,,IMP DU CANAL,0770,91100,91174,Corbeil-Essonnes,91,,,91174000BC0023,,,,,,,,,,,,,0,2,Appartement,16,3,S,sols,,,79,2.470591,48.585237
2021-435853,2021-01-22,000001,Vente,110000,3,,IMP DU CANAL,0770,91100,91174,Corbeil-Essonnes,91,,,91174000BC0023,,,,,,,,,,,,,0,2,Appartement,45,2,S,sols,,,79,2.470591,48.585237
2021-435853,2021-01-22,000001,Vente,110000,22,,IMP DU CANAL,0770,91100,91174,Corbeil-Essonnes,91,,,91174000BC0308,,,,,,,,,,,,,0,,,,,S,sols,,,2,2.470366,48.584813
2021-435853,2021-01-22,000001,Vente,110000,22,,IMP DU CANAL,0770,91100,91174,Corbeil-Essonnes,91,,,91174000BC0309,,,,,,,,,,,,,0,,,,,S,sols,,,9,2.470303,48.584684
2021-435853,2021-01-22,000001,Vente,110000,22,,IMP DU CANAL,0770,91100,91174,Corbeil-Essonnes,91,,,91174000BC0310,,,,,,,,,,,,,0,,,,,S,sols,,,17,2.470414,48.584807
2021-435853,2021-01-22,000001,Vente,110000,22,,IMP DU CANAL,0770,91100,91174,Corbeil-Essonnes,91,,,91174000BC0311,,,,,,,,,,,,,0,,,,,S,sols,,,222,2.470391,48.584682
2021-435854,2021-01-12,000001,Vente,330000,57,,RUE DE L'EGLANTIER,0008,91090,91340,Lisses,91,,,91340000AZ0105,,,,,,,,,,,,,0,1,Maison,130,5,S,sols,,,550,2.433959,48.599146
2021-435855,2021-01-22,000001,Vente,370000,26,B,RUE RAYMOND ROZIER,4050,91100,91174,Corbeil-Essonnes,91,,,91174000BL0368,,,,,,,,,,,,,0,1,Maison,116,5,S,sols,,,360,2.466451,48.598909
2021-435856,2021-01-22,000001,Vente,437500,16,B,RUE ST MARTIN,0600,91610,91045,Ballancourt-sur-Essonne,91,,,91045000BC0030,,,,,,,,,,,,,0,1,Maison,145,5,S,sols,,,676,2.377265,48.528744
2021-435857,2021-01-22,000001,Vente,93800,85,,BD JEAN JAURES,2330,91100,91174,Corbeil-Essonnes,91,,,91174000BR0388,,,38,,,,,,,,,,1,3,Dépendance,,0,,,,,,2.461826,48.610513
2021-435857,2021-01-22,000001,Vente,93800,85,,BD JEAN JAURES,2330,91100,91174,Corbeil-Essonnes,91,,,91174000BR0388,,,117,,,,,,,,,,1,2,Appartement,35,2,,,,,,2.461826,48.610513
2021-435858,2021-01-22,000001,Vente,222000,126,,RUE DE GOURNAY,2040,91100,91174,Corbeil-Essonnes,91,,,91174000AN0388,,,,,,,,,,,,,0,1,Maison,70,3,S,sols,,,84,2.469751,48.602745
2021-435859,2021-01-21,000001,Vente,140000,5,,RUE JEAN PIESTRE,2365,91100,91174,Corbeil-Essonnes,91,,,91174000BI0236,,,38,52.14,,,,,,,,,1,2,Appartement,52,3,,,,,,2.468944,48.590141
2021-435859,2021-01-21,000001,Vente,140000,7,,RUE JEAN PIESTRE,2365,91100,91174,Corbeil-Essonnes,91,,,91174000BI0236,,,116,,,,,,,,,,1,3,Dépendance,,0,,,,,,2.468944,48.590141
2021-435860,2021-01-08,000001,Vente,313500,106,,RUE DU GRAND MAURY,0520,91280,91573,Saint-Pierre-du-Perray,91,,,91573000AN0012,,,1,94.68,,,,,,,,,1,1,Maison,94,4,S,sols,,,568,2.519494,48.620459
2021-435861,2021-01-11,000001,Vente,131800,8,,RUE GASTON MANGIN,1810,91230,91421,Montgeron,91,,,91421000AV0119,,,67,,,,,,,,,,1,2,Appartement,62,3,,,,,,2.447038,48.710377
2021-435862,2021-01-15,000001,Vente,227550,9,,SQ DES QUINCONCES,0500,91070,91086,Bondoufle,91,,,91086000AC0245,,,,,,,,,,,,,0,1,Maison,77,4,S,sols,,,114,2.369253,48.612507
2021-435863,2021-01-19,000001,Vente,215000,12,,RUE RENE HABY,3426,91230,91421,Montgeron,91,,,91421000AV0096,,,45,,,,,,,,,,1,3,Dépendance,,0,,,,,,2.453283,48.707655
2021-435864,2021-01-06,000001,Vente,375400,28,,RUE JEAN LEGRAND,2180,91330,91691,Yerres,91,,,91691000AX0047,,,,,,,,,,,,,0,1,Maison,96,5,S,sols,,,725,2.482535,48.699609
2021-435865,2021-01-15,000001,Vente,101300,6,,RUE DES FRERES LUMIERE,3342,91080,91228,Évry-Courcouronnes,91,,,91228182AP0091,,,138,,,,,,,,,,1,3,Dépendance,,0,,,,,,2.419816,48.629302
2021-435865,2021-01-15,000001,Vente,101300,6,,RUE DES FRERES LUMIERE,3342,91080,91228,Évry-Courcouronnes,91,,,91228182AP0091,,,55,48.23,,,,,,,,,1,2,Appartement,49,2,,,,,,2.419816,48.629302
2021-435866,2021-01-25,000001,Vente,320000,23,,RUE DE CORBEIL,0060,91250,91577,Saintry-sur-Seine,91,,,91577000AL0192,,,,,,,,,,,,,0,1,Maison,87,4,S,sols,,,665,2.49736,48.602263
2021-435867,2021-01-20,000001,Vente,256000,19,,RUE DES PEUPLIERS,1040,91540,91386,Mennecy,91,,,91386000AE0226,,,,,,,,,,,,,0,1,Maison,91,4,S,sols,,,210,2.430144,48.556095
2021-435868,2021-01-15,000001,Vente,371500,42,,RUE DES ESSARTS,0633,91540,91386,Mennecy,91,,,91386000BK0084,,,,,,,,,,,,,0,1,Maison,118,5,S,sols,,,655,2.438089,48.56095
2021-435869,2021-01-25,000001,Vente,304000,33,,RUE DU GRIPPET,0655,91000,91228,Évry-Courcouronnes,91,,,91228000BX0043,,,,,,,,,,,,,0,1,Maison,118,5,S,sols,,,528,2.461796,48.623451
2021-435870,2021-01-12,000001,Vente en l'état futur d'achèvement,310000,,,LE SAULE ST JACQUES,B014,91540,91468,Ormoy,91,,,91468000ZA1061,,,,,,,,,,,,,0,,,,,AB,terrains a bâtir,,,192,2.459606,48.567381
2021-435871,2021-01-13,000001,Vente en l'état futur d'achèvement,217000,31,,RUE ALPHONSE DAUDET,0040,91210,91201,Draveil,91,,,91201000AW0251,,,5,,,,,,,,,,1,,,,,,,,,,2.424066,48.662029
2021-435871,2021-01-13,000001,Vente en l'état futur d'achèvement,217000,31,,RUE ALPHONSE DAUDET,0040,91210,91201,Draveil,91,,,91201000AW0251,,,25,,,,,,,,,,1,,,,,,,,,,2.424066,48.662029
2021-435871,2021-01-13,000001,Vente en l'état futur d'achèvement,217000,31,,RUE ALPHONSE DAUDET,0040,91210,91201,Draveil,91,,,91201000AW0251,,,24,,,,,,,,,,1,,,,,,,,,,2.424066,48.662029
2021-435871,2021-01-13,000001,Vente en l'état futur d'achèvement,217000,31,,RUE ALPHONSE DAUDET,0040,91210,91201,Draveil,91,,,91201000AW0251,,,23,,,,,,,,,,1,,,,,,,,,,2.424066,48.662029
2021-435872,2021-01-08,000001,Vente,403000,75,,RUE DE MANDRES,2300,91800,91114,Brunoy,91,,,91114000AV0305,,,,,,,,,,,,,0,,,,,S,sols,,,100,2.518841,48.705787
2021-435872,2021-01-08,000001,Vente,403000,77,,RUE DE MANDRES,2300,91800,91114,Brunoy,91,,,91114000AV0563,,,,,,,,,,,,,0,,,,,S,sols,,,6,2.518665,48.706006
2021-435872,2021-01-08,000001,Vente,403000,75,,RUE DE MANDRES,2300,91800,91114,Brunoy,91,,,91114000AW0276,,,,,,,,,,,,,0,1,Maison,170,6,S,sols,,,479,2.518758,48.705799
2021-435873,2021-01-18,000001,Vente,500000,4,,RUE DE LA BIGOTTE,0026,91750,91135,Champcueil,91,,,91135000ZL0112,,,16,,,,,,,,,,1,4,Local industriel. commercial ou assimilé,200,0,,,,,,2.451562,48.5138
2021-435873,2021-01-18,000001,Vente,500000,8,,RUE DE LA BIGOTTE,0026,91750,91135,Champcueil,91,,,91135000ZL0112,,,15,,17,,20,,,,,,3,4,Local industriel. commercial ou assimilé,400,0,,,,,,2.451562,48.5138
2021-435874,2021-01-19,000001,Vente,84000,1,,PL DE LA BAULLIERE,0042,91450,91225,Étiolles,91,,,91225000AI0123,,,177,,,,,,,,,,1,2,Appartement,26,1,,,,,,2.459334,48.640495
2021-435874,2021-01-19,000001,Vente,84000,2,,RUE CHALGRIN,0028,91450,91225,Étiolles,91,,,91225000AI0123,,,148,,,,,,,,,,1,3,Dépendance,,0,,,,,,2.459334,48.640495
2021-435875,2021-01-21,000001,Vente,530000,72,,CHE DU MAILLEFER,0315,91480,91631,Varennes-Jarcy,91,,,91631000AH0291,,,,,,,,,,,,,0,1,Maison,182,5,S,sols,,,1069,2.570985,48.680054
2021-435876,2021-01-22,000001,Vente,298300,26,,CLOS DE LA HIBOUTIERE,1042,91800,91097,Boussy-Saint-Antoine,91,,,91097000AE0176,,,,,,,,,,,,,0,1,Maison,90,5,S,sols,,,184,2.53606,48.685318
2021-435877,2021-01-19,000001,Vente,110000,54,B,AV PASTEUR,2920,91330,91691,Yerres,91,,,91691000AY0749,,,49,13,,,,,,,,,1,3,Dépendance,,0,,,,,,2.482248,48.694483
2021-435877,2021-01-19,000001,Vente,110000,54,B,AV PASTEUR,2920,91330,91691,Yerres,91,,,91691000AY0749,,,16,28.35,30,,,,,,,,2,2,Appartement,29,1,,,,,,2.482248,48.694483
2021-435878,2021-01-15,000001,Vente,142500,1,,RES LES ACACIAS,A010,91540,91386,Mennecy,91,,,91386000BI0862,,,31,,4,,53,,,,,,3,2,Appartement,60,2,,,,,,2.441374,48.566445
2021-435879,2021-01-25,000001,Vente,359400,10,,RUE DU BOIS DES ANTONINS,0587,91800,91097,Boussy-Saint-Antoine,91,,,91097000AI0134,,,,,,,,,,,,,0,1,Maison,108,4,S,sols,,,410,2.524953,48.680046
2021-435880,2021-01-25,000001,Vente,132000,1,,RUE JEAN RENOIR,3272,91080,91228,Évry-Courcouronnes,91,,,91228182AP0046,,,82,53.34,,,,,,,,,1,2,Appartement,54,2,,,,,,2.421436,48.630264
2021-435880,2021-01-25,000001,Vente,132000,3,B,RUE FRANCOIS TRUFFAUT,3278,91080,91228,Évry-Courcouronnes,91,,,91228182AP0046,,,126,,,,,,,,,,1,3,Dépendance,,0,,,,,,2.421436,48.630264
2021-435881,2021-01-25,000001,Vente,340000,9,B,AV DES TILLEULS,2560,91130,91521,Ris-Orangis,91,,,91521000BI0071,,,,,,,,,,,,,0,1,Maison,93,4,S,sols,,,371,2.434559,48.648007
2021-435882,2021-01-25,000001,Vente,290000,30,B,RUE DE LA MARQUISE,1830,91130,91521,Ris-Orangis,91,,,91521000AB0437,,,,,,,,,,,,,0,1,Maison,72,4,S,sols,,,576,2.405253,48.655167
2021-435883,2021-01-07,000001,Vente,421000,28,,RUE DES FOUGERES,1580,91330,91691,Yerres,91,,,91691000AI0199,,,,,,,,,,,,,0,1,Maison,110,6,S,sols,,,590,2.507478,48.719303
2021-435884,2021-01-12,000001,Vente,139900,210,B,BD HENRI BARBUSSE,1880,91210,91201,Draveil,91,,,91201000AE0473,,,5,38.03,8,,,,,,,,2,2,Appartement,34,2,,,,,,2.408923,48.685098
2021-435885,2021-01-15,000001,Vente,395000,37,,RUE COLBERT,0510,91560,91191,Crosne,91,,,91191000AD0015,,,,,,,,,,,,,0,1,Maison,118,5,S,sols,,,698,2.45808,48.718687
2021-435886,2021-01-15,000001,Vente en l'état futur d'achèvement,216800,,,LA CRX BLANCHE,B013,91270,91657,Vigneux-sur-Seine,91,,,91657000AT0225,,,52,,,,,,,,,,1,,,,,,,,,,2.420854,48.70618
2021-435887,2021-01-15,000001,Vente en l'état futur d'achèvement,199746.66,,,LA CRX BLANCHE,B013,91270,91657,Vigneux-sur-Seine,91,,,91657000AT0225,,,132,,,,,,,,,,1,,,,,,,,,,2.420854,48.70618
2021-435887,2021-01-15,000001,Vente en l'état futur d'achèvement,199746.66,,,LA CRX BLANCHE,B013,91270,91657,Vigneux-sur-Seine,91,,,91657000AT0225,,,54,,,,,,,,,,1,,,,,,,,,,2.420854,48.70618
2021-435888,2021-01-26,000001,Vente en l'état futur d'achèvement,227000,,,LE VILLAGE,B031,91090,91340,Lisses,91,,,91340000AZ0776,,,26,,,,,,,,,,1,,,,,,,,,,2.427068,48.599131
2021-435888,2021-01-26,000001,Vente en l'état futur d'achèvement,227000,,,LE VILLAGE,B031,91090,91340,Lisses,91,,,91340000AZ0776,,,65,,,,,,,,,,1,,,,,,,,,,2.427068,48.599131
2021-435889,2021-01-19,000001,Vente,176000,2,A,RUE DU DONJON,0980,91800,91114,Brunoy,91,,,91114000AB0268,,,114,48.47,,,,,,,,,1,2,Appartement,60,4,,,,,,2.502656,48.698628
2021-435889,2021-01-19,000001,Vente,176000,2,A,RUE DU DONJON,0980,91800,91114,Brunoy,91,,,91114000AB0268,,,108,,,,,,,,,,1,3,Dépendance,,0,,,,,,2.502656,48.698628
2021-435889,2021-01-19,000001,Vente,176000,2,A,RUE DU DONJON,0980,91800,91114,Brunoy,91,,,91114000AB0268,,,17,,,,,,,,,,1,3,Dépendance,,0,,,,,,2.502656,48.698628
2021-435890,2021-01-20,000001,Vente,113000,1,B,RUE D'ALSACE LORRAINE,0140,91860,91215,Épinay-sous-Sénart,91,,,91215000AB0023,,,154,,,,,,,,,,1,3,Dépendance,,0,,,,,,2.520982,48.699232
2021-435890,2021-01-20,000001,Vente,113000,16,,RUE DE L'ILE DE FRANCE,0845,91860,91215,Épinay-sous-Sénart,91,,,91215000AB0104,,,108,,49,70.09,,,,,,,2,2,Appartement,70,4,,,,,,2.523189,48.699159
2021-435891,2021-01-15,000001,Vente,158000,18,,RUE CHARLES DEGUY,0770,91230,91421,Montgeron,91,,,91421000AE0180,,,18,34.36,94,,,,,,,,2,2,Appartement,34,1,,,,,,2.468283,48.705901
2021-435891,2021-01-15,000001,Vente,158000,18,,RUE CHARLES DEGUY,0770,91230,91421,Montgeron,91,,,91421000AE0180,,,68,,,,,,,,,,1,3,Dépendance,,0,,,,,,2.468283,48.705901
2021-435892,2021-01-26,000001,Vente,118500,18,,RUE DU PERE LEGRIS,3632,91100,91174,Corbeil-Essonnes,91,,,91174000BO0101,,,4180,,,,,,,,,,1,3,Dépendance,,0,,,,,,2.467285,48.603342
2021-435892,2021-01-26,000001,Vente,118500,18,,RUE DU PERE LEGRIS,3632,91100,91174,Corbeil-Essonnes,91,,,91174000BO0101,,,4008,49.2,,,,,,,,,1,2,Appartement,49,2,,,,,,2.467285,48.603342
2021-435893,2021-01-26,000001,Vente,217000,5,,RUE DE LA CAMPANULE,0562,91270,91657,Vigneux-sur-Seine,91,,,91657000BA0129,,,25,61.63,,,,,,,,,1,2,Appartement,61,3,,,,,,2.438577,48.689071
2021-435893,2021-01-26,000001,Vente,217000,5,,RUE DE LA CAMPANULE,0562,91270,91657,Vigneux-sur-Seine,91,,,91657000BA0129,,,227,,,,,,,,,,1,3,Dépendance,,0,,,,,,2.438577,48.689071
2021-435893,2021-01-26,000001,Vente,217000,5,,RUE DE LA CAMPANULE,0562,91270,91657,Vigneux-sur-Seine,91,,,91657000BA0129,,,80,,,,,,,,,,1,3,Dépendance,,0,,,,,,2.438577,48.689071
2021-435894,2021-01-25,000001,Vente,2500,2,,RUE DES FRERES LUMIERE,3342,91080,91228,Évry-Courcouronnes,91,,,91228182AP0091,,,108,,,,,,,,,,1,3,Dépendance,,0,,,,,,2.419816,48.629302
2021-435895,2021-01-21,000001,Vente,162600,22,,GR GRDE RUE CHARLES DE GAULLE,0111,91250,91577,Saintry-sur-Seine,91,,,91577000AK0107,,,74,,,,,,,,,,1,3,Dépendance,,0,,,,,,2.491891,48.600663
2021-435895,2021-01-21,000001,Vente,162600,22,,GR GRDE RUE CHARLES DE GAULLE,0111,91250,91577,Saintry-sur-Seine,91,,,91577000AK0107,,,127,45.92,,,,,,,,,1,2,Appartement,47,2,,,,,,2.491891,48.600663
2021-435896,2021-01-14,000001,Vente,620000,12,B,RUE DU CLOS,0740,91130,91521,Ris-Orangis,91,,,91521000AB0731,,,9,145,,,,,,,,,1,4,Local industriel. commercial ou assimilé,145,0,,,,,,2.404743,48.656735
2021-435896,2021-01-14,000001,Vente,620000,,,,,,91521,Ris-Orangis,91,,,91521000AD0520,,6,,,,,,,,,,,0,,,,,,,,,,2.409479,48.65569
2021-435897,2021-01-22,000001,Vente,310000,1,,RUE DES ACACIAS,0006,91090,91340,Lisses,91,,,91340000AZ0039,,,,,,,,,,,,,0,1,Maison,104,6,S,sols,,,313,2.429995,48.599269
2021-435898,2021-01-06,000001,Vente,171000,15,,PL DU PLESSIS SAUCOURT,0105,91250,91617,Tigery,91,,,91617000AE0609,,,64,,,,,,,,,,1,3,Dépendance,,0,,,,,,2.512094,48.637299
2021-435899,2021-01-21,000001,Vente,400000,20,,AV DU GENERAL GOUTTIERE,1986,91800,91114,Brunoy,91,,,91114000AK0615,,,,,,,,,,,,,0,1,Maison,104,5,S,sols,,,516,2.489093,48.693364
2021-435900,2021-01-13,000001,Vente,194000,9,,RUE DU JASMIN,2575,91000,91228,Évry-Courcouronnes,91,,,91228000BM0227,,,55,54.45,,,,,,,,,1,1,Maison,56,3,,,,,,2.438432,48.639624
2021-435901,2021-01-21,000001,Vente,125000,9001,,FRM DU TEMPLE,A050,91130,91521,Ris-Orangis,91,,,91521000AY0085,,,1105,79.84,,,,,,,,,1,2,Appartement,78,5,,,,,,2.409948,48.643558
2021-435901,2021-01-21,000001,Vente,125000,9001,,FRM DU TEMPLE,A050,91130,91521,Ris-Orangis,91,,,91521000AY0085,,,1040,,,,,,,,,,1,2,Appartement,67,4,,,,,,2.409948,48.643558
2021-435901,2021-01-21,000001,Vente,125000,9001,,FRM DU TEMPLE,A050,91130,91521,Ris-Orangis,91,,,91521000AY0085,,,1197,,,,,,,,,,1,3,Dépendance,,0,,,,,,2.409948,48.643558
2021-435902,2021-01-20,000001,Vente,314000,36,,RUE LA FONTAINE,0580,91540,91386,Mennecy,91,,,91386000BB0305,,,,,,,,,,,,,0,1,Maison,83,3,S,sols,,,165,2.431611,48.565683
2021-435903,2021-01-21,000001,Vente,139000,2,,ALL DES CEDRES,0650,91800,91097,Boussy-Saint-Antoine,91,,,91097000AE0096,,,558,77.06,,,,,,,,,1,2,Appartement,83,4,,,,,,2.53534,48.687404
2021-435904,2021-01-14,000001,Vente,680000,16,,RUE DU BOIS DES PRES HAUTS,0332,91280,91573,Saint-Pierre-du-Perray,91,,,91573000AL0038,,,,,,,,,,,,,0,1,Maison,209,4,S,sols,,,800,2.512262,48.624656
2021-435905,2021-01-15,000001,Vente,135000,1,,ALL DES CEDRES,0650,91800,91097,Boussy-Saint-Antoine,91,,,91097000AE0096,,,521,77.87,,,,,,,,,1,2,Appartement,81,4,,,,,,2.53534,48.687404
2021-435906,2021-01-26,000001,Vente,127000,4,,SQ DU TROU ROUGE,3261,91080,91228,Évry-Courcouronnes,91,,,91228182AN0028,,,4,85.59,,,,,,,,,1,2,Appartement,85,4,,,,,,2.410896,48.632865
2021-435906,2021-01-26,000001,Vente,127000,9001,,SQ DU TROU ROUGE,3261,91080,91228,Évry-Courcouronnes,91,,,91228182AN0028,,,52,,,,,,,,,,1,3,Dépendance,,0,,,,,,2.410896,48.632865
2021-435907,2021-01-25,000001,Vente,317000,47,,RUE DES VIGNES,0399,91540,91468,Ormoy,91,,,91468000AC0167,,,,,,,,,,,,,0,1,Maison,93,5,S,sols,,,504,2.472143,48.575395
2021-435908,2021-01-26,000001,Vente,115750,13,,RUE DE CORBEIL,0004,91090,91340,Lisses,91,,,91340000AZ0015,,,3,35.22,,,,,,,,,1,2,Appartement,33,1,,,,,,2.426249,48.598238
2021-435909,2021-01-08,000001,Vente,600000,12,,RUE D'YERRES,4120,91800,91114,Brunoy,91,,,91114000AP0253,,,,,,,,,,,,,0,1,Maison,172,8,AG,terrains d'agrément,,,2640,2.504638,48.702262
2021-435909,2021-01-08,000001,Vente,600000,12,,RUE D'YERRES,4120,91800,91114,Brunoy,91,,,91114000AP0253,,,,,,,,,,,,,0,1,Maison,74,4,S,sols,,,400,2.504638,48.702262
2021-435909,2021-01-08,000001,Vente,600000,12,,RUE D'YERRES,4120,91800,91114,Brunoy,91,,,91114000AP0253,,,,,,,,,,,,,0,1,Maison,74,4,AG,terrains d'agrément,,,2640,2.504638,48.702262
2021-435909,2021-01-08,000001,Vente,600000,12,,RUE D'YERRES,4120,91800,91114,Brunoy,91,,,91114000AP0253,,,,,,,,,,,,,0,1,Maison,172,8,S,sols,,,400,2.504638,48.702262
2021-435910,2021-01-08,000001,Vente,417940,30,,RUE BALZAC,0130,91330,91691,Yerres,91,,,91691000AS0026,,,,,,,,,,,,,0,1,Maison,78,3,S,sols,,,461,2.490928,48.704805
2021-435910,2021-01-08,000001,Vente,417940,30,,RUE BALZAC,0130,91330,91691,Yerres,91,,,91691000AS0187,,,,,,,,,,,,,0,,,,,S,sols,,,250,2.490792,48.704986
2021-435911,2021-01-06,000001,Vente,335000,94,B,AV CHARLES DE GAULLE,0760,91230,91421,Montgeron,91,,,91421000AO0453,,,,,,,,,,,,,0,1,Maison,102,4,S,sols,,,500,2.45058,48.695024
2021-435912,2021-01-05,000001,Vente,165000,6,,AV DU BOIS,0470,91210,91201,Draveil,91,,,91201000AD0444,,,79,,,,,,,,,,1,3,Dépendance,,0,,,,,,2.41362,48.691845
2021-435912,2021-01-05,000001,Vente,165000,6,,AV DU BOIS,0470,91210,91201,Draveil,91,,,91201000AD0444,,,18,53.6,26,,,,,,,,2,2,Appartement,53,3,,,,,,2.41362,48.691845
2021-435913,2021-01-26,000001,Vente,220770,3,,RUE DE LA RESIDENCE EN BOIS,2305,91130,91521,Ris-Orangis,91,,,91521000AD0349,,,49,77.35,,,,,,,,,1,2,Appartement,77,4,,,,,,2.415609,48.659216
2021-435913,2021-01-26,000001,Vente,220770,3,,RUE DE LA RESIDENCE EN BOIS,2305,91130,91521,Ris-Orangis,91,,,91521000AD0349,,,103,,,,,,,,,,1,3,Dépendance,,0,,,,,,2.415609,48.659216
2021-435914,2021-01-11,000002,Vente,10000,,,RUE PAUL,2960,91330,91691,Yerres,91,,,91691000AW0603,,,,,,,,,,,,,0,,,,,S,sols,,,67,2.473428,48.697665
2021-435915,2021-01-15,000001,Vente,530000,113,,RUE PIERRE BROSSOLETTE,3220,91210,91201,Draveil,91,,,91201000AH0859,,,,,,,,,,,,,0,1,Maison,162,6,S,sols,,,407,2.420388,48.687611
2021-435916,2021-01-26,000001,Vente,226000,10,C,RUE DE L'ORGE,2784,91000,91228,Évry-Courcouronnes,91,,,91228000BC0227,,,,,,,,,,,,,0,1,Maison,83,4,S,sols,,,195,2.435862,48.61555
2021-435917,2021-01-27,000001,Vente,172825,14,,RUE HENRI DUNANT,0672,91000,91228,Évry-Courcouronnes,91,,,91228000AB0073,,,25,,3,82.27,,,,,,,2,2,Appartement,82,4,,,,,,2.432186,48.642452
2021-435917,2021-01-27,000001,Vente,172825,12,B,RUE HENRI DUNANT,0672,91000,91228,Évry-Courcouronnes,91,,,91228000AB0073,,,315,,,,,,,,,,1,3,Dépendance,,0,,,,,,2.432186,48.642452
2021-435918,2021-01-08,000001,Vente,381900,17,,RUE DE LA FAISANDERIE,0750,91560,91191,Crosne,91,,,91191000AE0085,,,,,,,,,,,,,0,1,Maison,61,3,S,sols,,,432,2.471408,48.720323
2021-435919,2021-01-27,000001,Vente,310000,120,B,RUE LOUIS BAUDOIN,2800,91100,91174,Corbeil-Essonnes,91,,,91174000AX0154,,,,,,,,,,,,,0,1,Maison,94,4,S,sols,,,446,2.477799,48.581309
2021-435920,2021-01-20,000001,Vente,287700,5,,RUE DU GORD,1550,91800,91097,Boussy-Saint-Antoine,91,,,91097000AE0067,,,,,,,,,,,,,0,1,Maison,100,4,S,sols,,,370,2.533384,48.687237
2021-435921,2021-01-15,000001,Vente,395000,157,B,RTE DE MORSANG,0180,91250,91577,Saintry-sur-Seine,91,,,91577000AD0017,,,,,,,,,,,,,0,1,Maison,109,5,AG,terrains d'agrément,PARC,Parc,1000,2.490203,48.585561
2021-435921,2021-01-15,000001,Vente,395000,157,B,RTE DE MORSANG,0180,91250,91577,Saintry-sur-Seine,91,,,91577000AD0017,,,,,,,,,,,,,0,1,Maison,109,5,S,sols,,,500,2.490203,48.585561
2021-435922,2021-01-27,000001,Vente en l'état futur d'achèvement,224188,58,,RUE LOUIS JOYEUX,2820,91100,91174,Corbeil-Essonnes,91,,,91174000BM0128,,,79,,,,,,,,,,1,,,,,,,,,,2.463723,48.599764
2021-435922,2021-01-27,000001,Vente en l'état futur d'achèvement,224188,58,,RUE LOUIS JOYEUX,2820,91100,91174,Corbeil-Essonnes,91,,,91174000BM0128,,,51,,,,,,,,,,1,,,,,,,,,,2.463723,48.599764
2021-435922,2021-01-27,000001,Vente en l'état futur d'achèvement,224188,58,,RUE LOUIS JOYEUX,2820,91100,91174,Corbeil-Essonnes,91,,,91174000BM0128,,,78,,,,,,,,,,1,,,,,,,,,,2.463723,48.599764
2021-435923,2021-01-04,000001,Vente,185000,4,,ALL LUCHINO VISCONTI,3284,91080,91228,Évry-Courcouronnes,91,,,91228182AP0071,,,3,,45,,,,,,,,2,2,Appartement,70,4,,,,,,2.423329,48.628308
2021-435924,2021-01-08,000001,Vente,358000,4,,RUE DE L UNION,3900,91230,91421,Montgeron,91,,,91421000AI0106,,,,,,,,,,,,,0,1,Maison,69,3,S,sols,,,419,2.473547,48.699847
2021-435925,2021-01-06,000001,Vente,18000,7,,RUE COLBERT,0510,91560,91191,Crosne,91,,,91191000AD0606,,,32,,,,,,,,,,1,3,Dépendance,,0,,,,,,2.460825,48.716769
2021-435926,2021-01-08,000001,Vente,385000,15,,RUE DES ROSES,1152,91540,91386,Mennecy,91,,,91386000AI0448,,,,,,,,,,,,,0,1,Maison,123,5,S,sols,,,894,2.434726,48.55239
2021-435927,2021-01-14,000001,Vente en l'état futur d'achèvement,265000,,,LE SAULE ST JACQUES,B014,91540,91468,Ormoy,91,,,91468000ZA1050,,,,,,,,,,,,,0,,,,,AB,terrains a bâtir,,,128,2.458851,48.567366
2021-435928,2021-01-21,000001,Vente,842600,202,B,RTE DE BRIE,0300,91800,91114,Brunoy,91,,,91114000AV0476,,,,,,,,,,,,,0,1,Maison,214,5,AG,terrains d'agrément,,,1000,2.52571,48.706501
2021-435928,2021-01-21,000001,Vente,842600,202,B,RTE DE BRIE,0300,91800,91114,Brunoy,91,,,91114000AV0476,,,,,,,,,,,,,0,1,Maison,214,5,S,sols,,,1535,2.52571,48.706501
2021-435928,2021-01-21,000001,Vente,842600,204,,RTE DE BRIE,0300,91800,91114,Brunoy,91,,,91114000AV0508,,,,,,,,,,,,,0,,,,,AB,terrains a bâtir,,,500,2.525854,48.706633
2021-435929,2021-01-27,000001,Vente,167310,3,,RUE DE LA RESIDENCE EN BOIS,2305,91130,91521,Ris-Orangis,91,,,91521000AD0349,,,74,,,,,,,,,,1,2,Appartement,50,2,,,,,,2.415609,48.659216
2021-435929,2021-01-27,000001,Vente,167310,3,,RUE DE LA RESIDENCE EN BOIS,2305,91130,91521,Ris-Orangis,91,,,91521000AD0349,,,127,,,,,,,,,,1,3,Dépendance,,0,,,,,,2.415609,48.659216
2021-435930,2021-01-20,000001,Vente,342000,27,,AV DU CLOS DE SENART,1000,91230,91421,Montgeron,91,,,91421000AL0181,,,,,,,,,,,,,0,1,Maison,57,3,S,sols,,,384,2.465831,48.69468
2021-435931,2021-01-27,000001,Vente,95000,15,,RUE DES MAZIERES,0791,91000,91228,Évry-Courcouronnes,91,,,91228000AN0049,,,62,,,,,,,,,,1,3,Dépendance,,0,,,,,,2.431718,48.62817
2021-435931,2021-01-27,000001,Vente,95000,15,,RUE DES MAZIERES,0791,91000,91228,Évry-Courcouronnes,91,,,91228000AN0049,,,11,55.08,74,,,,,,,,2,2,Appartement,54,2,,,,,,2.431718,48.62817
2021-435932,2021-01-04,000001,Vente,6700000,10,,RUE GUSTAVE EIFFEL,0360,91070,91086,Bondoufle,91,,,91086000AI0133,,,,,,,,,,,,,0,4,Local industriel. commercial ou assimilé,8625,0,S,sols,,,18988,2.382744,48.622424
2021-435932,2021-01-04,000001,Vente,6700000,,,LA BUTTE OU LES REMISES,B004,91070,91086,Bondoufle,91,,,91086000AI0158,,,,,,,,,,,,,0,,,,,AG,terrains d'agrément,IMM,Dépendances d'ensemble immobilier,4403,2.38301,48.62309
2021-435933,2021-01-14,000001,Vente en l'état futur d'achèvement,186600,,,LA GARENNE,B016,91280,91573,Saint-Pierre-du-Perray,91,,,91573000ZC0412,,,109,,,,,,,,,,1,,,,,,,,,,2.5169,48.615337
2021-435933,2021-01-14,000001,Vente en l'état futur d'achèvement,186600,,,LA GARENNE,B016,91280,91573,Saint-Pierre-du-Perray,91,,,91573000ZC0412,,,53,38.55,,,,,,,,,1,,,,,,,,,,2.5169,48.615337
2021-435934,2021-01-12,000001,Vente,280000,39,,SQ AGRIPPA D AUBIGNE,0015,91250,91553,Saint-Germain-lès-Corbeil,91,,,91553000AD0796,,,,,,,,,,,,,0,1,Maison,82,4,S,sols,,,247,2.498867,48.618518
2021-435935,2021-01-12,000001,Vente,182900,11,,RUE MAURICE RAVEL,1265,91560,91191,Crosne,91,,,91191000AE0286,,,975,,,,,,,,,,1,3,Dépendance,,0,,,,,,2.465604,48.720935
2021-435935,2021-01-12,000001,Vente,182900,11,,RUE MAURICE RAVEL,1265,91560,91191,Crosne,91,,,91191000AE0286,,,1277,,202,77.78,,,,,,,2,2,Appartement,79,4,,,,,,2.465604,48.720935
2021-435936,2021-01-29,000001,Vente,250000,57,,RUE WIDMER,5020,91100,91174,Corbeil-Essonnes,91,,,91174000AM0137,,,,,,,,,,,,,0,1,Maison,47,3,S,sols,,,282,2.477098,48.606455
2021-435937,2021-01-15,000001,Vente,364000,52,B,RUE DE LA MARQUISE,1830,91130,91521,Ris-Orangis,91,,,91521000AB0682,,,,,,,,,,,,,0,1,Maison,115,4,S,sols,,,355,2.404533,48.653739
2021-435938,2021-01-29,000001,Vente,164000,2,,RUE CHANTAL MAUDUIT,0336,91280,91573,Saint-Pierre-du-Perray,91,,,91573000AD0013,,,128,,48,47.84,,,,,,,2,2,Appartement,48,2,,,,,,2.503683,48.612878
2021-435938,2021-01-29,000001,Vente,164000,2,,RUE CHANTAL MAUDUIT,0336,91280,91573,Saint-Pierre-du-Perray,91,,,91573000AD0013,,,206,,,,,,,,,,1,3,Dépendance,,0,,,,,,2.503683,48.612878
2021-435939,2021-01-27,000001,Vente,1043481.7,3,,RUE MARYSE BASTIE,3221,91080,91228,Évry-Courcouronnes,91,,,91228182AI0074,,,,,,,,,,,,,0,4,Local industriel. commercial ou assimilé,3637,0,S,sols,,,8864,2.410334,48.625059
2021-435940,2021-01-07,000001,Vente,830000,15,,RUE DE PARIS,3520,91100,91174,Corbeil-Essonnes,91,,,91174000AN0175,,,30,,9,,,,,,,,2,2,Appartement,35,2,,,,,,2.468521,48.604258
2021-435940,2021-01-07,000001,Vente,830000,15,,RUE DE PARIS,3520,91100,91174,Corbeil-Essonnes,91,,,91174000AN0175,,,12,,28,,,,,,,,2,2,Appartement,90,4,,,,,,2.468521,48.604258
2021-435940,2021-01-07,000001,Vente,830000,17,,RUE DE PARIS,3520,91100,91174,Corbeil-Essonnes,91,,,91174000AN0175,,,13,,6,,,,,,,,2,2,Appartement,70,4,,,,,,2.468521,48.604258
2021-435940,2021-01-07,000001,Vente,830000,15,,RUE DE PARIS,3520,91100,91174,Corbeil-Essonnes,91,,,91174000AN0175,,,10,,29,,,,,,,,2,2,Appartement,30,2,,,,,,2.468521,48.604258
2021-435940,2021-01-07,000001,Vente,830000,17,,RUE DE PARIS,3520,91100,91174,Corbeil-Essonnes,91,,,91174000AN0175,,,38,,,,,,,,,,1,3,Dépendance,,0,,,,,,2.468521,48.604258
2021-435940,2021-01-07,000001,Vente,830000,17,,RUE DE PARIS,3520,91100,91174,Corbeil-Essonnes,91,,,91174000AN0175,,,7,,,,,,,,,,1,2,Appartement,28,2,,,,,,2.468521,48.604258
2021-435940,2021-01-07,000001,Vente,830000,15,,RUE DE PARIS,3520,91100,91174,Corbeil-Essonnes,91,,,91174000AN0175,,,17,,5,,,,,,,,2,2,Appartement,46,3,,,,,,2.468521,48.604258
2021-435940,2021-01-07,000001,Vente,830000,15,,RUE DE PARIS,3520,91100,91174,Corbeil-Essonnes,91,,,91174000AN0175,,,11,,3,,8,,,,,,3,2,Appartement,45,3,,,,,,2.468521,48.604258
2021-435940,2021-01-07,000001,Vente,830000,15,,RUE DE PARIS,3520,91100,91174,Corbeil-Essonnes,91,,,91174000AN0175,,,1,,2,,,,,,,,2,4,Local industriel. commercial ou assimilé,120,0,,,,,,2.468521,48.604258
2021-435940,2021-01-07,000001,Vente,830000,17,,RUE DE PARIS,3520,91100,91174,Corbeil-Essonnes,91,,,91174000AN0175,,,14,,16,,18,,19,,20,,7,2,Appartement,98,4,,,,,,2.468521,48.604258
2021-435941,2021-01-13,000001,Vente,245500,4,B,AV GRANGER,1810,91210,91201,Draveil,91,,,91201000AP0318,,,11,67.84,,,,,,,,,1,2,Appartement,68,3,,,,,,2.409189,48.683176
2021-435941,2021-01-13,000001,Vente,245500,4,B,AV GRANGER,1810,91210,91201,Draveil,91,,,91201000AP0318,,,28,,,,,,,,,,1,3,Dépendance,,0,,,,,,2.409189,48.683176
2021-435941,2021-01-13,000001,Vente,245500,4,B,AV GRANGER,1810,91210,91201,Draveil,91,,,91201000AP0318,,,25,,,,,,,,,,1,3,Dépendance,,0,,,,,,2.409189,48.683176
2021-435942,2021-01-28,000001,Vente,162000,7,,RUE DE LA PAPETERIE,3440,91100,91174,Corbeil-Essonnes,91,,,91174000BM0065,,,43,,,,,,,,,,1,3,Dépendance,,0,,,,,,2.46464,48.598753
2021-435942,2021-01-28,000001,Vente,162000,9,,RUE DE LA PAPETERIE,3440,91100,91174,Corbeil-Essonnes,91,,,91174000BM0065,,,25,,4,66.48,,,,,,,2,2,Appartement,66,3,,,,,,2.46464,48.598753
2021-435943,2021-01-28,000001,Vente,110000,7,,RUE AUDIFFRED BASTIDE,0330,91100,91174,Corbeil-Essonnes,91,,,91174000BV0084,,,17,32.06,,,,,,,,,1,2,Appartement,31,2,,,,,,2.482895,48.616665
2021-435944,2021-01-11,000001,Vente,90000,13,,RUE COLBERT,0510,91560,91191,Crosne,91,,,91191000AD0606,,,74,,97,,,,,,,,2,2,Appartement,54,3,,,,,,2.460825,48.716769
2021-435945,2021-01-12,000001,Vente,145000,33,,AV DE LA CONCORDE,2239,91270,91657,Vigneux-sur-Seine,91,,,91657000AR0515,,,3,,,,,,,,,,1,2,Appartement,39,2,,,,,,2.422707,48.70496
2021-435946,2021-01-12,000001,Vente,156000,47,,AV DE LA CONCORDE,2239,91270,91657,Vigneux-sur-Seine,91,,,91657000AR0509,,,65,42.82,,,,,,,,,1,2,Appartement,42,2,,,,,,2.424661,48.704452
2021-435946,2021-01-12,000001,Vente,156000,45,,AV DE LA CONCORDE,2239,91270,91657,Vigneux-sur-Seine,91,,,91657000AR0509,,,195,,,,,,,,,,1,3,Dépendance,,0,,,,,,2.424661,48.704452
2021-435947,2021-01-21,000001,Vente,225000,1,,RUE JEAN XXIII,1940,91800,91114,Brunoy,91,,,91114000AP0245,,,640,,,,,,,,,,1,3,Dépendance,,0,,,,,,2.499973,48.705026
2021-435947,2021-01-21,000001,Vente,225000,1,,RUE JEAN XXIII,1940,91800,91114,Brunoy,91,,,91114000AP0245,,,606,,688,,,,,,,,2,2,Appartement,79,4,,,,,,2.499973,48.705026
2021-435948,2021-01-26,000001,Vente,270000,24,,BD DENIS PAPIN,0830,91130,91521,Ris-Orangis,91,,,91521000AE1471,,,,,,,,,,,,,0,1,Maison,62,4,S,sols,,,316,2.409137,48.647148
2021-435949,2021-01-12,000001,Vente,196000,30,,CLOS DE LA HIBOUTIERE,1042,91800,91097,Boussy-Saint-Antoine,91,,,91097000AE0182,,,56,,,,,,,,,,1,3,Dépendance,,0,,,,,,2.535591,48.685009
2021-435949,2021-01-12,000001,Vente,196000,30,,CLOS DE LA HIBOUTIERE,1042,91800,91097,Boussy-Saint-Antoine,91,,,91097000AE0182,,,6,60.04,,,,,,,,,1,2,Appartement,60,3,,,,,,2.535591,48.685009
2021-435950,2021-01-08,000001,Vente,189000,9001,,RES LE PARC DE TALMA,A100,91860,91215,Épinay-sous-Sénart,91,,,91215000AK0045,,,730,,,,,,,,,,1,3,Dépendance,,0,,,,,,2.511162,48.690663
2021-435950,2021-01-08,000001,Vente,189000,9001,,RES LE PARC DE TALMA,A100,91860,91215,Épinay-sous-Sénart,91,,,91215000AK0045,,,954,,,,,,,,,,1,3,Dépendance,,0,,,,,,2.511162,48.690663
2021-435950,2021-01-08,000001,Vente,189000,11,,RUE DU MARECHAL NEY,1105,91860,91215,Épinay-sous-Sénart,91,,,91215000AK0045,,,355,98.14,390,,,,,,,,2,2,Appartement,98,5,,,,,,2.511162,48.690663
2021-435951,2021-01-15,000001,Vente,107000,26,,GR GRANDE RUE,2080,91100,91174,Corbeil-Essonnes,91,,,91174000BC0127,,,,,,,,,,,,,0,1,Maison,55,2,S,sols,,,45,2.471073,48.585368
2021-435952,2021-01-29,000001,Vente,129000,5,,RUE DU BAS COUDRAY,0460,91100,91174,Corbeil-Essonnes,91,,,91174000AP0040,,,1,,8,,,,,,,,2,2,Appartement,69,2,,,,,,2.485106,48.606519
2021-435952,2021-01-29,000001,Vente,129000,5,,RUE DU BAS COUDRAY,0460,91100,91174,Corbeil-Essonnes,91,,,91174000AP0040,,,11,,,,,,,,,,1,3,Dépendance,,0,,,,,,2.485106,48.606519
2021-435953,2021-01-27,000001,Vente,184900,1,,RUE GALILEE,0047,91250,91617,Tigery,91,,,91617000AE0097,,,202,,,,,,,,,,1,3,Dépendance,,0,,,,,,2.508047,48.636283
2021-435953,2021-01-27,000001,Vente,184900,1,,RUE GALILEE,0047,91250,91617,Tigery,91,,,91617000AE0097,,,201,,,,,,,,,,1,3,Dépendance,,0,,,,,,2.508047,48.636283
2021-435953,2021-01-27,000001,Vente,184900,1,,RUE GALILEE,0047,91250,91617,Tigery,91,,,91617000AE0097,,,205,,,,,,,,,,1,3,Dépendance,,0,,,,,,2.508047,48.636283
2021-435953,2021-01-27,000001,Vente,184900,1,,RUE GALILEE,0047,91250,91617,Tigery,91,,,91617000AE0097,,,1,59.36,2,,,,,,,,2,2,Appartement,59,3,,,,,,2.508047,48.636283
2021-435954,2021-01-29,000001,Vente,143000,111,,RUE ST SPIRE,4450,91100,91174,Corbeil-Essonnes,91,,,91174000AL0109,,,2538,,,,,,,,,,1,2,Appartement,44,2,,,,,,2.485179,48.607412
2021-435954,2021-01-29,000001,Vente,143000,38,,RUE CHEVALIER,1080,91100,91174,Corbeil-Essonnes,91,,,91174000AL0109,,,1531,,,,,,,,,,1,3,Dépendance,,0,,,,,,2.485179,48.607412
2021-435955,2021-01-19,000001,Vente,424000,5,,RUE DES SABLONS,1202,91540,91386,Mennecy,91,,,91386000BI0105,,,,,,,,,,,,,0,,,,,S,sols,,,244,2.437454,48.566432
2021-435955,2021-01-19,000001,Vente,424000,1,,RUE DU PARC,0950,91540,91386,Mennecy,91,,,91386000BI0979,,,,,,,,,,,,,0,1,Maison,223,7,S,sols,,,866,2.437526,48.566529
2021-435955,2021-01-19,000001,Vente,424000,1,,RUE DU PARC,0950,91540,91386,Mennecy,91,,,91386000BI0979,,,,,,,,,,,,,0,4,Local industriel. commercial ou assimilé,320,0,S,sols,,,866,2.437526,48.566529
2021-435956,2021-01-11,000001,Vente,614050,34,,RUE DE LA CROIX BOISSEE,0026,91810,91648,Vert-le-Grand,91,,,91648000AE0056,,,,,,,,,,,,,0,1,Maison,193,7,AG,terrains d'agrément,PARC,Parc,1000,2.362386,48.571365
2021-435956,2021-01-11,000001,Vente,614050,34,,RUE DE LA CROIX BOISSEE,0026,91810,91648,Vert-le-Grand,91,,,91648000AE0056,,,,,,,,,,,,,0,1,Maison,193,7,S,sols,,,884,2.362386,48.571365
2021-435957,2021-01-29,000001,Vente,381380,24,,RUE DES MARTINETS,0437,91610,91045,Ballancourt-sur-Essonne,91,,,91045000AD0147,,,,,,,,,,,,,0,1,Maison,110,5,S,sols,,,514,2.391211,48.526859
2021-435958,2021-01-08,000001,Vente,166700,11,B,QUAI MAURICE RIQUIEZ,2981,91100,91174,Corbeil-Essonnes,91,,,91174000BW0070,,,2,61.89,7,,,,,,,,2,2,Appartement,45,2,,,,,,2.487646,48.612562
2021-435959,2021-01-29,000001,Vente,275000,24,,IMP DE LA PLACE,3700,91100,91174,Corbeil-Essonnes,91,,,91174000BC0055,,,,,,,,,,,,,0,1,Maison,68,5,S,sols,,,801,2.46925,48.584834
2021-435960,2021-01-13,000001,Vente,235000,1,,RUE DES ECOLES,0490,91540,91386,Mennecy,91,,,91386000BK0265,,,24,,25,,82,59.65,,,,,3,2,Appartement,59,3,,,,,,2.434874,48.564783
2021-435960,2021-01-13,000001,Vente,235000,1,,RUE DES ECOLES,0490,91540,91386,Mennecy,91,,,91386000BK0265,,,89,,,,,,,,,,1,3,Dépendance,,0,,,,,,2.434874,48.564783
2021-435961,2021-01-22,000001,Vente,233000,19,,RUE DES CARRIERES,0280,91450,91600,Soisy-sur-Seine,91,,,91600000AI0270,,,212,,,,,,,,,,1,3,Dépendance,,0,,,,,,2.447512,48.652781
2021-435961,2021-01-22,000001,Vente,233000,19,,RUE DES CARRIERES,0280,91450,91600,Soisy-sur-Seine,91,,,91600000AI0270,,,105,,116,88.1,,,,,,,2,2,Appartement,86,4,,,,,,2.447512,48.652781
2021-435962,2021-01-25,000001,Vente,130650,1,,RUE DU BEL AIR,0181,91000,91228,Évry-Courcouronnes,91,,,91228000AI0008,,,71,69.6,,,,,,,,,1,2,Appartement,39,1,,,,,,2.453299,48.622241
2021-435963,2021-01-18,000001,Vente,40000,6,,PL DE L'EGLISE,0203,91090,91340,Lisses,91,,,91340000AM0366,,,,,,,,,,,,,0,3,Dépendance,,0,S,sols,,,208,2.425537,48.599353
2021-435964,2021-01-29,000001,Vente,162000,9001,,IMP CHRISTOPHE COLOMB,0335,91000,91228,Évry-Courcouronnes,91,,,91228000AI0002,,,121,,,,,,,,,,1,3,Dépendance,,0,,,,,,2.450939,48.62237
2021-435964,2021-01-29,000001,Vente,162000,1,,ALL DU POURQUOI PAS,0950,91000,91228,Évry-Courcouronnes,91,,,91228000AI0002,,,83,64.78,,,,,,,,,1,2,Appartement,65,3,,,,,,2.450939,48.62237
2021-435965,2021-01-14,000001,Vente,416090,7,,RUE GUSTAVE FLAUBERT,1950,91330,91691,Yerres,91,,,91691000BC0027,,,104,139.98,,,,,,,,,1,1,Maison,100,6,,,,,,2.49791,48.720147
2021-435965,2021-01-14,000001,Vente,416090,9001,,RUE GUSTAVE FLAUBERT,1950,91330,91691,Yerres,91,,,91691000BC0027,,,1104,,,,,,,,,,1,3,Dépendance,,0,,,,,,2.49791,48.720147
2021-435966,2021-01-28,000001,Vente,130000,3,,RUE DE LA RESIDENCE EN BOIS,2305,91130,91521,Ris-Orangis,91,,,91521000AD0349,,,59,38.95,,,,,,,,,1,2,Appartement,39,2,,,,,,2.415609,48.659216
2021-435966,2021-01-28,000001,Vente,130000,3,,RUE DE LA RESIDENCE EN BOIS,2305,91130,91521,Ris-Orangis,91,,,91521000AD0349,,,113,,,,,,,,,,1,3,Dépendance,,0,,,,,,2.415609,48.659216
2021-435967,2021-01-22,000001,Vente,232000,35,,RTE DE LISSES,2720,91100,91174,Corbeil-Essonnes,91,,,91174000BR0120,,,,,,,,,,,,,0,1,Maison,55,4,S,sols,,,684,2.460134,48.609181
2021-435968,2021-01-04,000001,Vente,285000,60,,RUE PASTEUR,0080,91280,91573,Saint-Pierre-du-Perray,91,,,91573000AB0345,,,,,,,,,,,,,0,1,Maison,57,3,S,sols,,,294,2.49225,48.612782
2021-435969,2021-01-26,000001,Vente,81000,82,,RUE DE CERCAY,0410,91800,91114,Brunoy,91,,,91114000AW0545,,,26,42.35,,,,,,,,,1,4,Local industriel. commercial ou assimilé,70,0,,,,,,2.517275,48.707309
2021-435970,2021-01-22,000001,Vente,283850,56,,LES HAMEAUX DE SEINE,B032,91250,91577,Saintry-sur-Seine,91,,,91577000AE0038,,,131,96.05,,,,,,,,,1,1,Maison,98,5,,,,,,2.487027,48.584423
2021-435971,2021-01-08,000001,Vente,156000,1,,RUE MOZART,0070,91280,91573,Saint-Pierre-du-Perray,91,,,91573000ZC0037,,,197,,,,,,,,,,1,3,Dépendance,,0,,,,,,2.511734,48.615499
2021-435971,2021-01-08,000001,Vente,156000,1,,RUE MOZART,0070,91280,91573,Saint-Pierre-du-Perray,91,,,91573000ZC0037,,,3050,41.75,,,,,,,,,1,2,Appartement,41,2,,,,,,2.511734,48.615499
2021-435972,2021-01-11,000001,Vente,125000,9001,,TOUR DES NOTABLES,B035,91800,91097,Boussy-Saint-Antoine,91,,,91097000AE0113,,,243,73.57,274,,305,,,,,,3,2,Appartement,75,4,,,,,,2.532591,48.684091
2021-435973,2021-01-06,000001,Vente,147000,1,,ALL LOUIS TILLET,0159,91250,91553,Saint-Germain-lès-Corbeil,91,,,91553000AK0033,,,18,37.59,,,,,,,,,1,2,Appartement,37,2,,,,,,2.491848,48.629763
2021-435973,2021-01-06,000001,Vente,147000,1,,ALL LOUIS TILLET,0159,91250,91553,Saint-Germain-lès-Corbeil,91,,,91553000AK0033,,,64,,,,,,,,,,1,3,Dépendance,,0,,,,,,2.491848,48.629763
2021-435974,2021-01-27,000001,Vente,225000,26,,RUE TRONCHARD,3840,91800,91114,Brunoy,91,,,91114000AC0049,,,7,,,,,,,,,,1,3,Dépendance,,0,,,,,,2.504309,48.691126
2021-435974,2021-01-27,000001,Vente,225000,26,,RUE TRONCHARD,3840,91800,91114,Brunoy,91,,,91114000AC0049,,,2,,3,,4,,6,,,,4,2,Appartement,56,3,,,,,,2.504309,48.691126
2021-435975,2021-01-28,000001,Vente,491800,61,B,RUE DE CORBEIL,0060,91250,91577,Saintry-sur-Seine,91,,,91577000AL0386,,,,,,,,,,,,,0,1,Maison,250,8,S,sols,,,1115,2.497994,48.604636
2021-435976,2021-01-20,000001,Vente,165000,29,,RUE DU BAS CLOS RENAULT,0268,91540,91386,Mennecy,91,,,91386000BD0722,,,,,,,,,,,,,0,,,,,AB,terrains a bâtir,,,598,2.444055,48.574428
2021-435976,2021-01-20,000001,Vente,165000,,,RUE DU BAS CLOS RENAULT,0268,91540,91386,Mennecy,91,,,91386000BD0723,,,,,,,,,,,,,0,,,,,S,sols,,,28,2.444106,48.57465
2021-435977,2021-01-26,000001,Vente,134000,,,RUE MARX DORMOY,0870,91480,91514,Quincy-sous-Sénart,91,,,91514000AK0715,,,,,,,,,,,,,0,,,,,AB,terrains a bâtir,,,33,2.533248,48.672546
2021-435977,2021-01-26,000001,Vente,134000,25,,RUE MARX DORMOY,0870,91480,91514,Quincy-sous-Sénart,91,,,91514000AK0716,,,,,,,,,,,,,0,,,,,AB,terrains a bâtir,,,376,2.53337,48.672578
2021-435978,2021-01-27,000001,Vente,234000,1,,RUE VIVALDI,0069,91280,91573,Saint-Pierre-du-Perray,91,,,91573000AH0409,,,105,,,,,,,,,,1,3,Dépendance,,0,,,,,,2.509575,48.612601
2021-435978,2021-01-27,000001,Vente,234000,1,,RUE VIVALDI,0069,91280,91573,Saint-Pierre-du-Perray,91,,,91573000AH0409,,,47,,,,,,,,,,1,3,Dépendance,,0,,,,,,2.509575,48.612601
2021-435978,2021-01-27,000001,Vente,234000,1,,RUE VIVALDI,0069,91280,91573,Saint-Pierre-du-Perray,91,,,91573000AH0409,,,48,,,,,,,,,,1,3,Dépendance,,0,,,,,,2.509575,48.612601
2021-435978,2021-01-27,000001,Vente,234000,1,,RUE VIVALDI,0069,91280,91573,Saint-Pierre-du-Perray,91,,,91573000AH0409,,,9,63.86,,,,,,,,,1,2,Appartement,62,3,,,,,,2.509575,48.612601
2021-435979,2021-01-29,000001,Vente,150230,2,,RUE DU BEL AIR,0330,91270,91657,Vigneux-sur-Seine,91,,,91657000AT0004,,,127,,54,76.48,,,,,,,2,2,Appartement,74,3,,,,,,2.414693,48.704941
2021-435979,2021-01-29,000001,Vente,150230,2,,RUE DU BEL AIR,0330,91270,91657,Vigneux-sur-Seine,91,,,91657000AT0004,,,207,,,,,,,,,,1,3,Dépendance,,0,,,,,,2.414693,48.704941
2021-435980,2021-01-14,000001,Vente,287000,16,,RUE JEAN MAZEL,0388,91070,91086,Bondoufle,91,,,910860000B0385,,,,,,,,,,,,,0,1,Maison,80,4,S,sols,,,161,2.366257,48.611398
2021-435981,2021-01-06,000001,Vente,55000,42,,AV DE LA REPUBLIQUE,3450,91230,91421,Montgeron,91,,,91421000AV0036,,,9,,,,,,,,,,1,2,Appartement,15,1,,,,,,2.454298,48.707398
2021-435982,2021-01-22,000001,Vente en l'état futur d'achèvement,287000,,,CHEM DE LA FERTE OU 30 ARP,B005,91070,91086,Bondoufle,91,,,910860000B0600,,,1303,,,,,,,,,,1,,,,,,,,,,2.365765,48.616686
2021-435982,2021-01-22,000001,Vente en l'état futur d'achèvement,287000,,,CHEM DE LA FERTE OU 30 ARP,B005,91070,91086,Bondoufle,91,,,910860000B0600,,,1520,,,,,,,,,,1,,,,,,,,,,2.365765,48.616686
2021-435982,2021-01-22,000001,Vente en l'état futur d'achèvement,287000,,,CHEM DE LA FERTE OU 30 ARP,B005,91070,91086,Bondoufle,91,,,910860000B0600,,,1521,,,,,,,,,,1,,,,,,,,,,2.365765,48.616686
2021-435983,2021-01-15,000001,Vente,125000,41,,RUE DU CHATEAU GAILLARD,0470,91560,91191,Crosne,91,,,91191000AD0563,,,1024,,784,68.7,,,,,,,2,2,Appartement,70,4,,,,,,2.462535,48.722455
2021-435983,2021-01-15,000001,Vente,125000,41,,RUE DU CHATEAU GAILLARD,0470,91560,91191,Crosne,91,,,91191000AD0563,,,544,,,,,,,,,,1,3,Dépendance,,0,,,,,,2.462535,48.722455
2021-435984,2021-01-08,000001,Vente,212000,20,,RUE DE LA CROIX ROCHOPT,0410,91860,91215,Épinay-sous-Sénart,91,,,91215000AD0033,,,104,,,,,,,,,,1,1,Maison,56,3,,,,,,2.518697,48.696508
2021-435985,2021-01-08,000001,Vente,280820,16,,RUE DU VAL FLEURI,3900,91800,91114,Brunoy,91,,,91114000AT0464,,,,,,,,,,,,,0,1,Maison,89,5,S,sols,,,425,2.518283,48.708985
2021-435986,2021-01-11,000001,Vente,330000,14,,RUE DE STRASBOURG,3719,91800,91114,Brunoy,91,,,91114000AT0535,,,,,,,,,,,,,0,1,Maison,101,5,S,sols,,,500,2.517534,48.709289
2021-435987,2021-01-06,000001,Vente,565000,12,,RUE DE SEINE,1320,91450,91600,Soisy-sur-Seine,91,,,91600000AM0183,,,,,,,,,,,,,0,1,Maison,150,6,S,sols,,,271,2.450477,48.641122
2021-435987,2021-01-06,000001,Vente,565000,12,,RUE DE SEINE,1320,91450,91600,Soisy-sur-Seine,91,,,91600000AM0194,,,,,,,,,,,,,0,,,,,S,sols,,,1000,2.450558,48.641002
2021-435987,2021-01-06,000001,Vente,565000,12,,RUE DE SEINE,1320,91450,91600,Soisy-sur-Seine,91,,,91600000AM0194,,,,,,,,,,,,,0,,,,,AG,terrains d'agrément,,,234,2.450558,48.641002
2021-435988,2021-01-11,000001,Vente,270000,8,,RUE DE CORBEIL,0060,91250,91577,Saintry-sur-Seine,91,,,91577000AL0115,,,,,,,,,,,,,0,1,Maison,90,4,S,sols,,,700,2.499537,48.601056
2021-435989,2021-01-12,000001,Vente,320000,15,,RUE FRANKLIN ROOSEVELT,0535,91480,91514,Quincy-sous-Sénart,91,,,91514000AI0525,,,,,,,,,,,,,0,1,Maison,95,3,S,sols,,,337,2.538837,48.669839
2021-435990,2021-02-02,000001,Vente,190000,5,,ALL DES THUYAS,0640,91610,91045,Ballancourt-sur-Essonne,91,,,91045000AV0167,,,,,,,,,,,,,0,1,Maison,65,3,S,sols,,,444,2.382566,48.528184
2021-435991,2021-01-28,000001,Vente,207500,4,,RUE DE BOISSY ST LEGER,0120,91480,91514,Quincy-sous-Sénart,91,,,91514000AE0481,,,47,58.2,,,,,,,,,1,2,Appartement,58,3,,,,,,2.538203,48.672431
2021-435991,2021-01-28,000001,Vente,207500,4,,RUE DE BOISSY ST LEGER,0120,91480,91514,Quincy-sous-Sénart,91,,,91514000AE0481,,,96,,,,,,,,,,1,3,Dépendance,,0,,,,,,2.538203,48.672431
2021-435992,2021-01-25,000001,Vente,110000,10,,SQ FERNAND WIDAL,2380,91000,91228,Évry-Courcouronnes,91,,,91228000BE0029,,,36,33.44,94,,,,,,,,2,2,Appartement,32,2,,,,,,2.420117,48.636721
2021-435993,2021-01-27,000001,Vente,114200,71,,RUE DE LA DAUPHINE,1310,91100,91174,Corbeil-Essonnes,91,,,91174000AS0077,,,60,48.53,99,,,,,,,,2,2,Appartement,51,2,,,,,,2.476911,48.601235
2021-435993,2021-01-27,000001,Vente,114200,71,,RUE DE LA DAUPHINE,1310,91100,91174,Corbeil-Essonnes,91,,,91174000AS0077,,,605,,,,,,,,,,1,3,Dépendance,,0,,,,,,2.476911,48.601235
2021-435994,2021-01-14,000001,Vente,18000,2,,AV JEAN JAURES,2000,91210,91201,Draveil,91,,,91201000AE0242,,,122,,,,,,,,,,1,3,Dépendance,,0,,,,,,2.409801,48.687395
2021-435995,2021-01-21,000001,Vente,159000,53,,AV DE L'ABBAYE,0010,91330,91691,Yerres,91,,,91691000AH0747,,,6,45.95,,,,,,,,,1,2,Appartement,43,2,,,,,,2.493533,48.714351
2021-435995,2021-01-21,000001,Vente,159000,53,,AV DE L'ABBAYE,0010,91330,91691,Yerres,91,,,91691000AH0747,,,11,,,,,,,,,,1,3,Dépendance,,0,,,,,,2.493533,48.714351
2021-435996,2021-01-15,000001,Vente,365000,14,,RUE DU CARNAVAL,0370,91560,91191,Crosne,91,,,91191000AB0075,,,,,,,,,,,,,0,1,Maison,100,5,S,sols,,,494,2.471855,48.721367
2021-435997,2021-02-02,000001,Vente,222000,260,,BD HENRI BARBUSSE,1880,91210,91201,Draveil,91,,,91201000AD0527,,,205,,,,,,,,,,1,3,Dépendance,,0,,,,,,2.411535,48.690333
2021-435997,2021-02-02,000001,Vente,222000,260,,BD HENRI BARBUSSE,1880,91210,91201,Draveil,91,,,91201000AD0527,,,203,,,,,,,,,,1,2,Appartement,67,3,,,,,,2.411535,48.690333
2021-435998,2021-01-21,000001,Vente,125760,2,,RES LES ACACIAS,A010,91540,91386,Mennecy,91,,,91386000BI0872,,,7,,,,,,,,,,1,2,Appartement,64,3,,,,,,2.441056,48.567215
2021-435999,2021-01-18,000001,Vente,14000,9001,,RES DE LA THEUILLERIE,A070,91130,91521,Ris-Orangis,91,,,91521000AB0485,,,1632,,,,,,,,,,1,3,Dépendance,,0,,,,,,2.397566,48.65498
2021-436000,2021-01-11,000001,Vente,214000,126,,BD HENRI BARBUSSE,1880,91210,91201,Draveil,91,,,91201000AP0044,,,37,,41,67.85,,,,,,,2,2,Appartement,68,4,,,,,,2.410187,48.681125
2021-436001,2021-01-20,000001,Vente,160000,88,,RUE D'ANGOULEME,0210,91100,91174,Corbeil-Essonnes,91,,,91174000BM0123,,,261,,282,98.04,,,,,,,2,2,Appartement,98,5,,,,,,2.462561,48.60124
2021-436001,2021-01-20,000001,Vente,160000,86,,RUE D'ANGOULEME,0210,91100,91174,Corbeil-Essonnes,91,,,91174000BM0123,,,9,,,,,,,,,,1,3,Dépendance,,0,,,,,,2.462561,48.60124
2021-436001,2021-01-20,000001,Vente,160000,86,,RUE D'ANGOULEME,0210,91100,91174,Corbeil-Essonnes,91,,,91174000BM0123,,,128,,,,,,,,,,1,3,Dépendance,,0,,,,,,2.462561,48.60124
2021-436002,2021-01-15,000001,Vente,290000,5,,AV DE L'EUROPE,0730,91560,91191,Crosne,91,,,91191000AD1364,,,20,78.8,,,,,,,,,1,2,Appartement,78,4,,,,,,2.459095,48.716645
2021-436002,2021-01-15,000001,Vente,290000,5,,AV DE L'EUROPE,0730,91560,91191,Crosne,91,,,91191000AD1364,,,73,,,,,,,,,,1,3,Dépendance,,0,,,,,,2.459095,48.716645
2021-436003,2021-01-29,000001,Vente,160000,3,,SQ GUTENBERG,0664,91000,91228,Évry-Courcouronnes,91,,,91228000AB0053,,,102,102.4,,,,,,,,,1,2,Appartement,103,5,,,,,,2.430838,48.641425
2021-436003,2021-01-29,000001,Vente,160000,9001,,SQ GUTENBERG,0664,91000,91228,Évry-Courcouronnes,91,,,91228000AB0053,,,277,,,,,,,,,,1,3,Dépendance,,0,,,,,,2.430838,48.641425
2021-436004,2021-02-01,000001,Vente en l'état futur d'achèvement,162645.83,58,,RUE LOUIS JOYEUX,2820,91100,91174,Corbeil-Essonnes,91,,,91174000BM0128,,,83,,,,,,,,,,1,,,,,,,,,,2.463723,48.599764
2021-436004,2021-02-01,000001,Vente en l'état futur d'achèvement,162645.83,58,,RUE LOUIS JOYEUX,2820,91100,91174,Corbeil-Essonnes,91,,,91174000BM0128,,,56,,,,,,,,,,1,,,,,,,,,,2.463723,48.599764
2021-436005,2021-01-25,000001,Vente,350000,29,,AV HENRI COTTON,0320,91250,91553,Saint-Germain-lès-Corbeil,91,,,91553000AM0025,,,,,,,,,,,,,0,1,Maison,95,4,AB,terrains a bâtir,,,359,2.490302,48.638077
2021-436006,2021-01-08,000001,Vente,115000,6,,RUE DE LA CLAIRIERE,2230,91000,91228,Évry-Courcouronnes,91,,,91228000AV0150,,,3,,,,,,,,,,1,3,Dépendance,,0,,,,,,2.42358,48.638745
2021-436006,2021-01-08,000001,Vente,115000,6,,RUE DE LA CLAIRIERE,2230,91000,91228,Évry-Courcouronnes,91,,,91228000AV0150,,,24,49.78,,,,,,,,,1,2,Appartement,49,2,,,,,,2.42358,48.638745
2021-436007,2021-01-29,000001,Vente,275000,33,,ALL DES ORMES,3410,91100,91174,Corbeil-Essonnes,91,,,91174000AR0099,,,,,,,,,,,,,0,1,Maison,69,5,S,sols,,,552,2.485981,48.603411
2021-436008,2021-01-18,000001,Vente,222000,6,,RUE D'ESCHBORN,1547,91230,91421,Montgeron,91,,,91421000AR0488,,,160,59.1,,,,,,,,,1,2,Appartement,60,2,,,,,,2.458147,48.704468
2021-436008,2021-01-18,000001,Vente,222000,9001,,RUE D'ESCHBORN,1547,91230,91421,Montgeron,91,,,91421000AR0488,,,373,,,,,,,,,,1,3,Dépendance,,0,,,,,,2.458147,48.704468
2021-436008,2021-01-18,000001,Vente,222000,9001,,RUE D'ESCHBORN,1547,91230,91421,Montgeron,91,,,91421000AR0488,,,563,,,,,,,,,,1,3,Dépendance,,0,,,,,,2.458147,48.704468
2021-436009,2021-01-25,000001,Vente,125000,1,,RUE DU CHATEAU D'EAU,0690,91130,91521,Ris-Orangis,91,,,91521000AX0079,,,23,57.62,57,,,,,,,,2,2,Appartement,58,3,,,,,,2.404281,48.650536
2021-436010,2021-01-21,000001,Vente,324000,23,,ALL LAVOISIER,2335,91330,91691,Yerres,91,,,91691000BC0030,,,12,87.73,,,,,,,,,1,1,Maison,89,5,,,,,,2.495446,48.720043
2021-436010,2021-01-21,000001,Vente,324000,9002,,RUE GAY LUSSAC,1705,91330,91691,Yerres,91,,,91691000BC0030,,,78,,,,,,,,,,1,3,Dépendance,,0,,,,,,2.495446,48.720043
2021-436011,2021-01-19,000001,Vente,130000,16,,ALL GUY BONIFACE,1955,91330,91691,Yerres,91,,,91691000AO0052,,,3,64.43,35,,,,,,,,2,2,Appartement,61,3,,,,,,2.48127,48.712329
2021-436012,2021-01-18,000001,Vente,183000,18,B,RUE DE BELLEVUE,0210,91330,91691,Yerres,91,,,91691000AD0450,,,,,,,,,,,,,0,,,,,J,jardins,POTAG,Jardin potager,190,2.483909,48.71732
2021-436012,2021-01-18,000001,Vente,183000,18,,RUE DE BELLEVUE,0210,91330,91691,Yerres,91,,,91691000AD0476,,,,,,,,,,,,,0,,,,,AB,terrains a bâtir,,,560,2.483995,48.717247
2021-436013,2021-01-22,000001,Vente,230000,2,,PL DES QUATRE SAISONS,2991,91270,91657,Vigneux-sur-Seine,91,,,91657000BA0130,,,36,64.63,,,,,,,,,1,2,Appartement,64,3,,,,,,2.439135,48.689727
2021-436013,2021-01-22,000001,Vente,230000,2,,PL DES QUATRE SAISONS,2991,91270,91657,Vigneux-sur-Seine,91,,,91657000BA0130,,,85,,,,,,,,,,1,3,Dépendance,,0,,,,,,2.439135,48.689727
2021-436013,2021-01-22,000001,Vente,230000,2,,PL DES QUATRE SAISONS,2991,91270,91657,Vigneux-sur-Seine,91,,,91657000BA0130,,,122,,,,,,,,,,1,3,Dépendance,,0,,,,,,2.439135,48.689727
2021-436014,2021-01-15,000001,Vente en l'état futur d'achèvement,226000,,,CHE DES HAUTS TARTERETS,2200,91100,91174,Corbeil-Essonnes,91,,,91174000AC0799,,,39,,,,,,,,,,1,,,,,,,,,,2.463177,48.614882
2021-436014,2021-01-15,000001,Vente en l'état futur d'achèvement,226000,,,CHE DES HAUTS TARTERETS,2200,91100,91174,Corbeil-Essonnes,91,,,91174000AC0799,,,57,,,,,,,,,,1,,,,,,,,,,2.463177,48.614882
2021-436015,2021-01-12,000001,Vente,163200,2,,RUE DU CHATEAU DE SOULINS,0610,91800,91114,Brunoy,91,,,91114000AN0244,,,805,,831,,,,,,,,2,2,Appartement,67,3,,,,,,2.491553,48.702464
2021-436016,2021-01-27,000001,Vente,347700,9001,,PL FRANCIS POULENC,0530,91480,91514,Quincy-sous-Sénart,91,,,91514000AA0017,,,8,134.03,,,,,,,,,1,1,Maison,102,5,,,,,,2.538746,48.684178
2021-436017,2021-01-29,000001,Vente,86000,27,,AV DARBLAY,1290,91100,91174,Corbeil-Essonnes,91,,,91174000AH0289,,,2,,7,,,,,,,,2,2,Appartement,42,3,,,,,,2.476741,48.61379
2021-436018,2021-01-29,000001,Vente,140000,27,,AV DARBLAY,1290,91100,91174,Corbeil-Essonnes,91,,,91174000AH0289,,,13,,14,,15,,16,,17,,5,2,Appartement,69,4,,,,,,2.476741,48.61379
2021-436019,2021-01-21,000001,Vente,155000,86,,RUE D'ANGOULEME,0210,91100,91174,Corbeil-Essonnes,91,,,91174000BM0123,,,55,,,,,,,,,,1,3,Dépendance,,0,,,,,,2.462561,48.60124
2021-436019,2021-01-21,000001,Vente,155000,86,,RUE D'ANGOULEME,0210,91100,91174,Corbeil-Essonnes,91,,,91174000BM0123,,,125,,,,,,,,,,1,3,Dépendance,,0,,,,,,2.462561,48.60124
2021-436019,2021-01-21,000001,Vente,155000,86,,RUE D'ANGOULEME,0210,91100,91174,Corbeil-Essonnes,91,,,91174000BM0123,,,288,,312,81.01,,,,,,,2,2,Appartement,81,4,,,,,,2.462561,48.60124
2021-436020,2021-01-21,000001,Vente,174000,7,,RUE JULES LEMAIRE,2430,91100,91174,Corbeil-Essonnes,91,,,91174000AL0263,,,6,,,,,,,,,,1,3,Dépendance,,0,,,,,,2.481568,48.609336
2021-436020,2021-01-21,000001,Vente,174000,38,,RUE JEAN-JACQUES ROUSSEAU,2320,91100,91174,Corbeil-Essonnes,91,,,91174000AL0280,,,,,,,,,,,,,0,1,Maison,76,5,S,sols,,,184,2.481138,48.60916
2021-436021,2021-01-22,000001,Vente,261770,3,,RUE DE LA FUTAIE,0215,91090,91340,Lisses,91,,,91340000AE0204,,,2,104.2,,,,,,,,,1,1,Maison,101,4,,,,,,2.417128,48.610269
2021-436022,2021-01-20,000001,Vente,250000,6,,RPT PASTEUR,2930,91330,91691,Yerres,91,,,91691000AY0150,,,,,,,,,,,,,0,4,Local industriel. commercial ou assimilé,120,0,S,sols,,,475,2.48329,48.694679
2021-436022,2021-01-20,000001,Vente,250000,6,,RPT PASTEUR,2930,91330,91691,Yerres,91,,,91691000AY0150,,,,,,,,,,,,,0,1,Maison,74,5,S,sols,,,475,2.48329,48.694679
2021-436023,2021-02-02,000001,Vente,114510,5,,RUE DES FRENES,1855,91100,91174,Corbeil-Essonnes,91,,,91174000AR0377,,,95,43.42,,,,,,,,,1,2,Appartement,43,2,,,,,,2.481481,48.599063
2021-436023,2021-02-02,000001,Vente,114510,5,,RUE DES FRENES,1855,91100,91174,Corbeil-Essonnes,91,,,91174000AR0377,,,239,,,,,,,,,,1,3,Dépendance,,0,,,,,,2.481481,48.599063
2021-436024,2021-01-18,000001,Vente,595000,16,,RUE DE L EGLISE,0110,91830,91179,Le Coudray-Montceaux,91,,,91179000AE0119,,,1,198.83,,,,,,,,,1,1,Maison,187,5,,,,,,2.499215,48.564828
2021-436025,2021-01-19,000001,Vente,217000,2,,ALL GUSTAVE CLUSERET,2470,91000,91228,Évry-Courcouronnes,91,,,91228000AY0181,,,,,,,,,,,,,0,1,Maison,84,4,S,sols,,,66,2.437581,48.621993
2021-436025,2021-01-19,000001,Vente,217000,,,LES EPINETTES,B008,91000,91228,Évry-Courcouronnes,91,,,91228000AY0184,,,,,,,,,,,,,0,,,,,S,sols,,,94,2.437656,48.621956
2021-436026,2021-01-15,000001,Vente,385000,140,,RUE DE BELLEVUE,0210,91330,91691,Yerres,91,,,91691000AC0018,,,,,,,,,,,,,0,1,Maison,112,5,J,jardins,POTAG,Jardin potager,756,2.473863,48.716704
2021-436026,2021-01-15,000001,Vente,385000,140,,RUE DE BELLEVUE,0210,91330,91691,Yerres,91,,,91691000AC0018,,,,,,,,,,,,,0,1,Maison,112,5,S,sols,,,53,2.473863,48.716704
2021-436027,2021-01-08,000001,Vente,125000,4,,RUE JULES VALLES,0718,91000,91228,Évry-Courcouronnes,91,,,91228000AT0018,,,5,54.9,,,,,,,,,1,2,Appartement,55,2,,,,,,2.432093,48.635698
2021-436027,2021-01-08,000001,Vente,125000,4,,RUE JULES VALLES,0718,91000,91228,Évry-Courcouronnes,91,,,91228000AT0018,,,207,,,,,,,,,,1,3,Dépendance,,0,,,,,,2.432093,48.635698
2021-436028,2021-01-27,000001,Vente,220000,24,,RUE DES MARCASSINS,0032,91070,91086,Bondoufle,91,,,91086000AW0090,,,,,,,,,,,,,0,1,Maison,107,5,S,sols,,,464,2.387548,48.612665
2021-436029,2021-01-20,000001,Vente,72000,33,,RUE SERPENTE,1460,91860,91215,Épinay-sous-Sénart,91,,,91215000AD0033,,,380,,391,,449,,,,,,3,2,Appartement,49,2,,,,,,2.518697,48.696508
2021-436030,2021-01-15,000001,Vente,315000,41,,RUE DES ROSSIGNOLS,3460,91330,91691,Yerres,91,,,91691000AI0186,,,,,,,,,,,,,0,1,Maison,58,3,S,sols,,,508,2.509423,48.720561
2021-436031,2021-01-20,000001,Vente en l'état futur d'achèvement,319000,,,LE SAULE ST JACQUES,B014,91540,91468,Ormoy,91,,,91468000ZA1038,,,,,,,,,,,,,0,,,,,AB,terrains a bâtir,,,114,2.457918,48.566622
2021-436031,2021-01-20,000001,Vente en l'état futur d'achèvement,319000,,,LE SAULE ST JACQUES,B014,91540,91468,Ormoy,91,,,91468000ZA1097,,,,,,,,,,,,,0,,,,,AB,terrains a bâtir,,,65,2.457821,48.566624
2021-436032,2021-01-22,000001,Vente en l'état futur d'achèvement,309000,,,LE SAULE ST JACQUES,B014,91540,91468,Ormoy,91,,,91468000ZA1067,,,,,,,,,,,,,0,,,,,AB,terrains a bâtir,,,192,2.458984,48.567235
2021-436033,2021-01-27,000001,Vente en l'état futur d'achèvement,237000,224,,BD HENRI BARBUSSE,1880,91210,91201,Draveil,91,,,91201000AE0445,,,1009,,,,,,,,,,1,,,,,,,,,,,
2021-436033,2021-01-27,000001,Vente en l'état futur d'achèvement,237000,224,,BD HENRI BARBUSSE,1880,91210,91201,Draveil,91,,,91201000AE0445,,,1324,,,,,,,,,,1,,,,,,,,,,,
2021-436034,2021-01-06,000001,Vente,308000,19,,RUE DU GANTELET,0011,91090,91340,Lisses,91,,,91340000AC0178,,,,,,,,,,,,,0,1,Maison,75,5,S,sols,,,528,2.423168,48.608943
2021-436035,2021-02-04,000001,Vente,195000,6,B,AV HENRI CHARON,1495,91270,91657,Vigneux-sur-Seine,91,,,91657000AR0525,,,15,,,,,,,,,,1,3,Dépendance,,0,,,,,,2.425045,48.705047
2021-436035,2021-02-04,000001,Vente,195000,6,,AV HENRI CHARON,1495,91270,91657,Vigneux-sur-Seine,91,,,91657000AR0525,,,80,76.1,,,,,,,,,1,2,Appartement,76,4,,,,,,2.425045,48.705047
2021-436036,2021-01-06,000001,Vente,116000,8,,ALL DES BATELIERS,3131,91080,91228,Évry-Courcouronnes,91,,,91228182AN0173,,,71,65.17,,,,,,,,,1,2,Appartement,69,3,,,,,,2.412748,48.635112
2021-436036,2021-01-06,000001,Vente,116000,9001,,ALL DES BATELIERS,3131,91080,91228,Évry-Courcouronnes,91,,,91228182AN0173,,,176,12.5,,,,,,,,,1,3,Dépendance,,0,,,,,,2.412748,48.635112
2021-436037,2021-02-01,000001,Vente,300000,74,,CHE DES BAS VIGNONS,0520,91100,91174,Corbeil-Essonnes,91,,,91174000AW0260,,,,,,,,,,,,,0,1,Maison,100,5,S,sols,,,500,2.483487,48.593244
2021-436038,2021-01-29,000001,Vente,227000,2,,RUE DU LAC,0076,91250,91617,Tigery,91,,,91617000AB0012,,,51,,,,,,,,,,1,3,Dépendance,,0,,,,,,2.508808,48.644756
2021-436038,2021-01-29,000001,Vente,227000,2,,RUE DU LAC,0076,91250,91617,Tigery,91,,,91617000AB0012,,,20,,39,64.53,,,,,,,2,2,Appartement,64,3,,,,,,2.508808,48.644756
2021-436038,2021-01-29,000001,Vente,227000,2,,RUE DU LAC,0076,91250,91617,Tigery,91,,,91617000AB0012,,,212,,,,,,,,,,1,3,Dépendance,,0,,,,,,2.508808,48.644756
2021-436039,2021-01-15,000001,Vente,326000,27,,AV JEAN JAURES,0690,91480,91514,Quincy-sous-Sénart,91,,,91514000AK0424,,,,,,,,,,,,,0,1,Maison,100,5,S,sols,,,294,2.535043,48.670713
2021-436040,2021-01-26,000001,Vente,132000,27,,RUE ST SPIRE,4450,91100,91174,Corbeil-Essonnes,91,,,91174000AL0019,,,2,69.02,3,,,,,,,,2,2,Appartement,69,3,,,,,,2.483561,48.612006
2021-436041,2021-01-13,000001,Vente en l'état futur d'achèvement,222000,,,,,,91228,Évry-Courcouronnes,91,,,91228000BE0019,,,13,,,,,,,,,,1,,,,,,,,,,2.420214,48.637576
2021-436042,2021-02-02,000001,Vente,135000,15,,RUE ALPHONSE DAUDET,0050,91000,91228,Évry-Courcouronnes,91,,,91228000BR0029,,,34,,64,,,,,,,,2,2,Appartement,62,3,,,,,,2.449669,48.628236
2021-436042,2021-02-02,000001,Vente,135000,1,,RUE ALPHONSE DAUDET,0050,91000,91228,Évry-Courcouronnes,91,,,91228000BR0029,,,752,,,,,,,,,,1,3,Dépendance,,0,,,,,,2.449669,48.628236
2021-436043,2021-01-15,000001,Vente,154000,5,,RUE CHARLES GOUNOD,0460,91560,91191,Crosne,91,,,91191000AE0286,,,1406,77.82,1414,,,,,,,,2,2,Appartement,79,4,,,,,,2.465604,48.720935
2021-436043,2021-01-15,000001,Vente,154000,5,,RUE CHARLES GOUNOD,0460,91560,91191,Crosne,91,,,91191000AE0286,,,1044,,,,,,,,,,1,3,Dépendance,,0,,,,,,2.465604,48.720935
2021-436044,2021-01-06,000001,Vente,132000,45,,BD DE L'YERRES,3115,91000,91228,Évry-Courcouronnes,91,,,91228000AZ0231,,,69,,,,,,,,,,1,3,Dépendance,,0,,,,,,2.431152,48.617646
2021-436044,2021-01-06,000001,Vente,132000,45,,BD DE L'YERRES,3115,91000,91228,Évry-Courcouronnes,91,,,91228000AZ0231,,,91,,,,,,,,,,1,2,Appartement,46,2,,,,,,2.431152,48.617646
2021-436045,2021-01-12,000001,Vente,155000,45,,BD DECAUVILLE,0380,91000,91228,Évry-Courcouronnes,91,,,91228000BM0009,,,95,65.76,,,,,,,,,1,2,Appartement,68,3,,,,,,2.439602,48.637801
2021-436045,2021-01-12,000001,Vente,155000,45,,BD DECAUVILLE,0380,91000,91228,Évry-Courcouronnes,91,,,91228000BM0009,,,48,,,,,,,,,,1,3,Dépendance,,0,,,,,,2.439602,48.637801
2021-436045,2021-01-12,000001,Vente,155000,45,,BD DECAUVILLE,0380,91000,91228,Évry-Courcouronnes,91,,,91228000BM0009,,,35,,,,,,,,,,1,3,Dépendance,,0,,,,,,2.439602,48.637801
2021-436046,2021-01-27,000001,Vente,232000,18,,RUE MANET,0830,91480,91514,Quincy-sous-Sénart,91,,,91514000AD0017,,,103,80.04,,,,,,,,,1,1,Maison,71,4,,,,,,2.533537,48.67825
2021-436047,2021-01-29,000001,Vente,141800,9001,,LES ARQUEBUSIERS,B030,91800,91097,Boussy-Saint-Antoine,91,,,91097000AE0113,,,161,,27,56.43,94,,,,,,3,2,Appartement,58,3,,,,,,2.532591,48.684091
2021-436048,2021-01-29,000001,Vente,320000,15,,RUE DES FAISANS,1510,91330,91691,Yerres,91,,,91691000AI0730,,,,,,,,,,,,,0,1,Maison,54,2,J,jardins,POTAG,Jardin potager,526,2.508731,48.718889
2021-436048,2021-01-29,000001,Vente,320000,15,,RUE DES FAISANS,1510,91330,91691,Yerres,91,,,91691000AI0730,,,,,,,,,,,,,0,1,Maison,54,2,S,sols,,,300,2.508731,48.718889
2021-436049,2021-01-29,000001,Vente,105000,10,,RES LE PARC DE PETIT BOURG,A150,91000,91228,Évry-Courcouronnes,91,,,91228000BL0038,,,467,68.64,468,,,,,,,,2,2,Appartement,67,4,,,,,,2.442353,48.639466
2021-436050,2021-01-29,000001,Vente,72000,33,,RUE BARTHELEMY,0440,91100,91174,Corbeil-Essonnes,91,,,91174000AS0200,,,58,29.2,,,,,,,,,1,2,Appartement,30,1,,,,,,2.472462,48.599308
2021-436050,2021-01-29,000001,Vente,72000,33,,RUE BARTHELEMY,0440,91100,91174,Corbeil-Essonnes,91,,,91174000AS0200,,,35,,,,,,,,,,1,3,Dépendance,,0,,,,,,2.472462,48.599308
2021-436051,2021-01-28,000001,Vente,264000,51,,RUE GABRIEL PERI,0550,91480,91514,Quincy-sous-Sénart,91,,,91514000AK0104,,,,,,,,,,,,,0,1,Maison,92,5,S,sols,,,290,2.530288,48.671723
